$SDHDG,220.3,,,2.9,E*3D
$SDHDG,220.3,,,2.9,E*3D
$GPGSA,A,3,21,26,16,20,29,27,05,07,,,,,2.86,1.63,2.34*01
$GPGSV,3,1,11,21,71,137,29,26,66,213,39,16,59,284,43,20,37,085,36*72
$GPGSV,3,2,11,29,29,094,34,27,26,272,37,37,23,168,,18,17,150,*71
$GPGSV,3,3,11,05,16,032,36,07,07,345,28,31,06,209,*48
$SDHDG,220.3,,,2.9,E*3D
$GPRMC,134601,A,5812.7405,N,01132.8508,E,0.0,67.0,270715,2.9,E,A*2A
$GPVTG,67.0,T,64.1,M,0.0,N,0.0,K,A*21
$GPZDA,134601,27,07,2015,-01,00*61
$GPAAM,,,,N,*38
$GPAPB,,,,,,,,,,,,,,,N*26
$GPBOD,,T,,M,,*47
$GPRMB,,,,,,,,,,,,,,N*04
$GPXTE,,,,,N,N*5E
$SDDBT,11.7,f,3.5,M,1.9,F*3F
$SDDPT,3.5,0.-6,*56
$SDMTW,15.0,C*00
$SDVLW,,N,1128.6,N,0.0,N,0.0,N*48
$SDVHW,223.2,T,220.3,M,0.0,N,0.0,K*40
$WIMWD,,T,,M,,N,,M*5A
$WIMWV,,R,,N,V*34
$WIMWV,,T,,N,V*32
$SDHDG,220.3,,,2.9,E*3D
$RATLL,01,5812.6870,N,01131.9502,E,1 (Broadband 4G - 2782 B),134601,T,*5F
$RATTM,01,0.48,263.6,T,0.0,2.9,T,0.48,,N,1 (Broadband 4G - 2782 B),T,,134601,M*51
$IIXDR,C,C,,C,AIRTEMP,A,-1.-5,D,HEEL,A,-4.-3,D,TRIM,P,,B,BARO,A,A,,D,RUDDER*06
$GPGGA,134601,5812.7405,N,01132.8508,E,1,08,1.63,-7,M,40.4,M,,*47
$SDHDG,220.3,,,2.9,E*3D
$SDHDG,220.2,,,2.9,E*3C
$SDHDG,220.2,,,2.9,E*3C
$SDHDG,220.2,,,2.9,E*3C
$SDHDG,220.1,,,2.9,E*3F
$GPGLL,5812.7405,N,01132.8510,E,134602,A,A*40
$SDHDG,220.1,,,2.9,E*3F
$SDHDG,220.1,,,2.9,E*3F
$SDHDG,220.0,,,2.9,E*3E
$GPGSA,A,3,21,26,16,20,29,27,18,05,07,,,,1.66,0.95,1.36*0C
$GPGSV,3,1,11,21,71,137,31,26,66,213,38,16,59,284,43,20,37,085,36*7A
$GPGSV,3,2,11,29,29,094,37,27,26,272,37,37,23,168,,18,17,150,30*71
$GPGSV,3,3,11,05,16,032,36,07,07,345,29,31,06,209,*49
$SDHDG,220.0,,,2.9,E*3E
$GPRMC,134602,A,5812.7405,N,01132.8510,E,0.0,67.0,270715,2.9,E,A*20
$GPVTG,67.0,T,64.1,M,0.0,N,0.0,K,A*21
$GPZDA,134602,27,07,2015,-01,00*62
$GPAAM,,,,N,*38
$GPAPB,,,,,,,,,,,,,,,N*26
$GPBOD,,T,,M,,*47
$GPRMB,,,,,,,,,,,,,,N*04
$GPXTE,,,,,N,N*5E
$SDDBT,12.2,f,3.7,M,2.0,F*31
$SDDPT,3.7,0.-6,*54
$SDMTW,15.0,C*00
$SDVLW,,N,1128.6,N,0.0,N,0.0,N*48
$SDVHW,222.9,T,220.0,M,0.0,N,0.0,K*49
$WIMWD,,T,,M,,N,,M*5A
$WIMWV,,R,,N,V*34
$WIMWV,,T,,N,V*32
$RATLL,01,5812.6972,N,01131.9484,E,1 (Broadband 4G - 2782 B),134602,T,*50
$SDHDG,220.0,,,2.9,E*3E
$RATTM,01,0.48,264.8,T,0.0,2.9,T,0.48,,N,1 (Broadband 4G - 2782 B),T,,134602,M*5B
$IIXDR,C,C,,C,AIRTEMP,A,-2.-1,D,HEEL,A,-4.-2,D,TRIM,P,,B,BARO,A,A,,D,RUDDER*00
$GPGGA,134602,5812.7405,N,01132.8510,E,1,09,0.95,-7,M,40.4,M,,*44
$SDHDG,220.0,,,2.9,E*3E
$SDHDG,220.0,,,2.9,E*3E
$SDHDG,220.0,,,2.9,E*3E
$SDHDG,220.0,,,2.9,E*3E
$GPGLL,5812.7405,N,01132.8509,E,134603,A,A*49
$SDHDG,220.1,,,2.9,E*3F
$SDHDG,220.1,,,2.9,E*3F
$SDHDG,220.2,,,2.9,E*3C
$GPGSA,A,3,21,26,16,20,29,27,05,07,,,,,2.86,1.63,2.34*01
$GPGSV,3,1,11,21,71,137,29,26,66,213,38,16,59,284,43,20,37,085,36*73
$GPGSV,3,2,11,29,29,094,34,27,26,272,37,37,23,168,,18,17,150,*71
$GPGSV,3,3,11,05,16,032,36,07,07,345,29,31,06,209,*49
$SDHDG,220.2,,,2.9,E*3C
$SDHDG,220.2,,,2.9,E*3C
$GPRMC,134603,A,5812.7406,N,01132.8509,E,0.0,67.0,270715,2.9,E,A*2A
$GPVTG,67.0,T,64.1,M,0.0,N,0.0,K,A*21
$GPZDA,134603,27,07,2015,-01,00*63
$GPAAM,,,,N,*38
$GPAPB,,,,,,,,,,,,,,,N*26
$GPBOD,,T,,M,,*47
$GPRMB,,,,,,,,,,,,,,N*04
$GPXTE,,,,,N,N*5E
$SDDBT,12.0,f,3.6,M,2.0,F*32
$SDDPT,3.6,0.-6,*55
$SDMTW,15.0,C*00
$SDVLW,,N,1128.6,N,0.0,N,0.0,N*48
$SDVHW,223.1,T,220.2,M,0.0,N,0.0,K*42
$WIMWD,,T,,M,,N,,M*5A
$WIMWV,,R,,N,V*34
$WIMWV,,T,,N,V*32
$RATLL,01,5812.6972,N,01131.9484,E,1 (Broadband 4G - 2782 B),134603,T,*51
$SDHDG,220.2,,,2.9,E*3C
$RATTM,01,0.48,264.8,T,0.0,2.9,T,0.48,,N,1 (Broadband 4G - 2782 B),T,,134603,M*5A
$IIXDR,C,C,,C,AIRTEMP,A,-1.-4,D,HEEL,A,-4.-2,D,TRIM,P,,B,BARO,A,A,,D,RUDDER*06
$GPGGA,134603,5812.7406,N,01132.8509,E,1,08,1.63,-6,M,40.4,M,,*46
$SDHDG,220.2,,,2.9,E*3C
$SDHDG,220.2,,,2.9,E*3C
$SDHDG,220.2,,,2.9,E*3C
$SDHDG,220.2,,,2.9,E*3C
$GPGLL,5812.7406,N,01132.8511,E,134604,A,A*44
$SDHDG,220.2,,,2.9,E*3C
$SDHDG,220.2,,,2.9,E*3C
$SDHDG,220.2,,,2.9,E*3C
$GPGSA,A,3,21,26,16,20,29,27,05,07,,,,,2.86,1.63,2.35*00
$GPGSV,3,1,11,21,71,137,27,26,66,213,38,16,59,284,43,20,37,085,35*7E
$GPGSV,3,2,11,29,29,094,36,27,26,272,37,37,23,168,,18,17,150,*73
$GPGSV,3,3,11,05,16,032,36,07,07,345,29,31,06,209,*49
$SDHDG,220.2,,,2.9,E*3C
$SDHDG,220.2,,,2.9,E*3C
$GPRMC,134604,A,5812.7404,N,01132.8512,E,0.0,67.0,270715,2.9,E,A*25
$GPVTG,67.0,T,64.1,M,0.0,N,0.0,K,A*21
$GPZDA,134604,27,07,2015,-01,00*64
$GPAAM,,,,N,*38
$GPAPB,,,,,,,,,,,,,,,N*26
$GPBOD,,T,,M,,*47
$GPRMB,,,,,,,,,,,,,,N*04
$GPXTE,,,,,N,N*5E
$SDDBT,11.6,f,3.5,M,1.9,F*3E
$SDDPT,3.5,0.-6,*56
$SDMTW,15.0,C*00
$SDVLW,,N,1128.6,N,0.0,N,0.0,N*48
$SDVHW,223.0,T,220.1,M,0.0,N,0.0,K*40
$WIMWD,,T,,M,,N,,M*5A
$WIMWV,,R,,N,V*34
$WIMWV,,T,,N,V*32
$RATLL,01,5812.6955,N,01131.9491,E,1 (Broadband 4G - 2782 B),134604,T,*57
$SDHDG,220.1,,,2.9,E*3F
$RATTM,01,0.48,264.6,T,0.0,2.9,T,0.48,,N,1 (Broadband 4G - 2782 B),T,,134604,M*53
$IIXDR,C,C,,C,AIRTEMP,A,-1.-8,D,HEEL,A,-4.-2,D,TRIM,P,,B,BARO,A,A,,D,RUDDER*0A
$GPGGA,134604,5812.7404,N,01132.8512,E,1,08,1.63,-6,M,40.4,M,,*49
$SDHDG,220.1,,,2.9,E*3F
$SDHDG,220.1,,,2.9,E*3F
$SDHDG,220.1,,,2.9,E*3F
$SDHDG,220.1,,,2.9,E*3F
$GPGLL,5812.7404,N,01132.8512,E,134605,A,A*44
$SDHDG,220.0,,,2.9,E*3E
$SDHDG,220.0,,,2.9,E*3E
$SDHDG,220.0,,,2.9,E*3E
$GPGSA,A,3,21,26,16,20,29,27,18,05,07,,,,1.66,0.95,1.36*0C
$GPGSV,3,1,11,21,71,137,31,26,66,213,38,16,59,284,43,20,37,085,36*7A
$GPGSV,3,2,11,29,29,094,37,27,26,272,37,37,23,168,,18,18,150,30*7E
$GPGSV,3,3,11,05,16,032,36,07,07,345,29,31,06,209,*49
$SDHDG,220.0,,,2.9,E*3E
$SDHDG,220.0,,,2.9,E*3E
$GPRMC,134605,A,5812.7404,N,01132.8511,E,0.0,67.0,270715,2.9,E,A*27
$GPVTG,67.0,T,64.1,M,0.0,N,0.0,K,A*21
$GPZDA,134605,27,07,2015,-01,00*65
$GPAAM,,,,N,*38
$GPAPB,,,,,,,,,,,,,,,N*26
$GPBOD,,T,,M,,*47
$GPRMB,,,,,,,,,,,,,,N*04
$GPXTE,,,,,N,N*5E
$SDDBT,12.1,f,3.6,M,2.0,F*33
$SDDPT,3.6,0.-6,*55
$SDMTW,15.0,C*00
$SDVLW,,N,1128.6,N,0.0,N,0.0,N*48
$SDVHW,222.9,T,220.0,M,0.0,N,0.0,K*49
$WIMWD,,T,,M,,N,,M*5A
$WIMWV,,R,,N,V*34
$WIMWV,,T,,N,V*32
$RATLL,01,5812.6955,N,01131.9491,E,1 (Broadband 4G - 2782 B),134605,T,*56
$SDHDG,220.0,,,2.9,E*3E
$RATTM,01,0.48,264.6,T,0.0,2.9,T,0.48,,N,1 (Broadband 4G - 2782 B),T,,134605,M*52
$IIXDR,C,C,,C,AIRTEMP,A,-2.-1,D,HEEL,A,-4.-3,D,TRIM,P,,B,BARO,A,A,,D,RUDDER*01
$GPGGA,134605,5812.7404,N,01132.8511,E,1,09,0.95,-6,M,40.4,M,,*42
$SDHDG,220.0,,,2.9,E*3E
$SDHDG,220.0,,,2.9,E*3E
$SDHDG,220.0,,,2.9,E*3E
$SDHDG,220.0,,,2.9,E*3E
$GPGLL,5812.7404,N,01132.8511,E,134606,A,A*44
$SDHDG,220.0,,,2.9,E*3E
$SDHDG,220.1,,,2.9,E*3F
$SDHDG,220.1,,,2.9,E*3F
$GPGSA,A,3,21,26,16,20,29,27,05,07,,,,,2.86,1.63,2.35*00
$GPGSV,3,1,11,21,71,137,31,26,66,213,39,16,59,284,43,20,37,085,36*7B
$GPGSV,3,2,11,29,29,094,32,27,26,272,37,37,23,168,,18,18,150,*78
$GPGSV,3,3,11,05,16,032,36,07,07,345,28,31,06,209,*48
$SDHDG,220.1,,,2.9,E*3F
$SDHDG,220.2,,,2.9,E*3C
$GPRMC,134606,A,5812.7404,N,01132.8513,E,0.0,67.0,270715,2.9,E,A*26
$GPVTG,67.0,T,64.1,M,0.0,N,0.0,K,A*21
$GPZDA,134606,27,07,2015,-01,00*66
$GPAAM,,,,N,*38
$GPAPB,,,,,,,,,,,,,,,N*26
$GPBOD,,T,,M,,*47
$GPRMB,,,,,,,,,,,,,,N*04
$GPXTE,,,,,N,N*5E
$SDDBT,11.9,f,3.6,M,1.9,F*32
$SDDPT,3.6,0.-6,*55
$SDMTW,15.0,C*00
$SDVLW,,N,1128.6,N,0.0,N,0.0,N*48
$SDVHW,223.1,T,220.2,M,0.0,N,0.0,K*42
$WIMWD,,T,,M,,N,,M*5A
$WIMWV,,R,,N,V*34
$WIMWV,,T,,N,V*32
$RATLL,01,5812.6955,N,01131.9491,E,1 (Broadband 4G - 2782 B),134606,T,*55
$RATTM,01,0.48,264.6,T,0.0,2.9,T,0.48,,N,1 (Broadband 4G - 2782 B),T,,134606,M*51
$SDHDG,220.2,,,2.9,E*3C
$IIXDR,C,C,,C,AIRTEMP,A,-1.-2,D,HEEL,A,-4.-3,D,TRIM,P,,B,BARO,A,A,,D,RUDDER*01
$GPGGA,134606,5812.7404,N,01132.8513,E,1,08,1.63,-6,M,40.4,M,,*4A
$SDHDG,220.2,,,2.9,E*3C
$SDHDG,220.2,,,2.9,E*3C
$SDHDG,220.2,,,2.9,E*3C
$SDHDG,220.2,,,2.9,E*3C
$GPGLL,5812.7404,N,01132.8513,E,134607,A,A*47
$SDHDG,220.2,,,2.9,E*3C
$SDHDG,220.2,,,2.9,E*3C
$SDHDG,220.2,,,2.9,E*3C
$GPGSA,A,3,21,26,16,20,29,27,18,05,07,,,,1.66,0.95,1.36*0C
$GPGSV,3,1,11,21,71,137,31,26,66,213,37,16,59,284,43,20,37,085,35*76
$GPGSV,3,2,11,29,29,094,36,27,26,272,37,39,22,164,,18,18,150,31*7D
$GPGSV,3,3,11,05,16,032,37,07,07,345,29,31,06,209,*48
$SDHDG,220.2,,,2.9,E*3C
$SDHDG,220.2,,,2.9,E*3C
$GPRMC,134607,A,5812.7404,N,01132.8510,E,0.0,67.0,270715,2.9,E,A*24
$GPVTG,67.0,T,64.1,M,0.0,N,0.0,K,A*21
$GPZDA,134607,27,07,2015,-01,00*67
$GPAAM,,,,N,*38
$GPAPB,,,,,,,,,,,,,,,N*26
$GPBOD,,T,,M,,*47
$GPRMB,,,,,,,,,,,,,,N*04
$GPXTE,,,,,N,N*5E
$SDDBT,11.9,f,3.6,M,1.9,F*32
$SDDPT,3.6,0.-6,*55
$SDMTW,15.0,C*00
$SDVLW,,N,1128.6,N,0.0,N,0.0,N*48
$SDVHW,223.0,T,220.1,M,0.0,N,0.0,K*40
$WIMWD,,T,,M,,N,,M*5A
$WIMWV,,R,,N,V*34
$WIMWV,,T,,N,V*32
$RATLL,01,5812.6928,N,01131.9485,E,1 (Broadband 4G - 2782 B),134607,T,*5B
$RATTM,01,0.48,264.3,T,0.0,2.9,T,0.48,,N,1 (Broadband 4G - 2782 B),T,,134607,M*55
$SDHDG,220.1,,,2.9,E*3F
$IIXDR,C,C,,C,AIRTEMP,A,-2.-1,D,HEEL,A,-4.-1,D,TRIM,P,,B,BARO,A,A,,D,RUDDER*03
$GPGGA,134607,5812.7404,N,01132.8510,E,1,09,0.95,-6,M,40.4,M,,*41
$SDHDG,220.1,,,2.9,E*3F
$SDHDG,220.1,,,2.9,E*3F
$SDHDG,220.0,,,2.9,E*3E
$SDHDG,220.0,,,2.9,E*3E
$GPGLL,5812.7405,N,01132.8511,E,134608,A,A*4B
$SDHDG,220.0,,,2.9,E*3E
$SDHDG,220.0,,,2.9,E*3E
$SDHDG,220.0,,,2.9,E*3E
$GPGSA,A,3,21,26,16,20,29,27,18,05,07,,,,1.66,0.95,1.36*0C
$GPGSV,3,1,11,21,71,137,30,26,66,213,38,16,59,284,43,20,37,085,35*78
$GPGSV,3,2,11,29,29,094,36,27,26,272,37,39,22,164,,18,18,150,24*79
$GPGSV,3,3,11,05,16,032,37,07,07,345,29,31,06,209,*48
$SDHDG,220.0,,,2.9,E*3E
$SDHDG,220.0,,,2.9,E*3E
$GPRMC,134608,A,5812.7404,N,01132.8512,E,0.0,67.0,270715,2.9,E,A*29
$GPVTG,67.0,T,64.1,M,0.0,N,0.0,K,A*21
$GPZDA,134608,27,07,2015,-01,00*68
$GPAAM,,,,N,*38
$GPAPB,,,,,,,,,,,,,,,N*26
$GPBOD,,T,,M,,*47
$GPRMB,,,,,,,,,,,,,,N*04
$GPXTE,,,,,N,N*5E
$SDDBT,12.2,f,3.7,M,2.0,F*31
$SDDPT,3.7,0.-6,*54
$SDMTW,15.0,C*00
$SDVLW,,N,1128.6,N,0.0,N,0.0,N*48
$SDVHW,222.9,T,220.0,M,0.0,N,0.0,K*49
$WIMWD,,T,,M,,N,,M*5A
$WIMWV,,R,,N,V*34
$WIMWV,,T,,N,V*32
$RATLL,01,5812.6928,N,01131.9485,E,1 (Broadband 4G - 2782 B),134608,T,*54
$RATTM,01,0.48,264.3,T,0.0,2.9,T,0.48,,N,1 (Broadband 4G - 2782 B),T,,134608,M*5A
$SDHDG,220.0,,,2.9,E*3E
$IIXDR,C,C,,C,AIRTEMP,A,-1.-6,D,HEEL,A,-4.-2,D,TRIM,P,,B,BARO,A,A,,D,RUDDER*04
$GPGGA,134608,5812.7404,N,01132.8512,E,1,09,0.95,-6,M,40.4,M,,*4C
$SDHDG,220.0,,,2.9,E*3E
$SDHDG,220.1,,,2.9,E*3F
$SDHDG,220.1,,,2.9,E*3F
$SDHDG,220.2,,,2.9,E*3C
$GPGLL,5812.7404,N,01132.8511,E,134609,A,A*4B
$SDHDG,220.2,,,2.9,E*3C
$SDHDG,220.2,,,2.9,E*3C
$SDHDG,220.2,,,2.9,E*3C
$GPGSA,A,3,21,26,16,20,29,27,05,07,,,,,2.86,1.63,2.35*00
$GPGSV,3,1,11,21,71,137,31,26,66,213,39,16,59,284,43,20,37,085,36*7B
$GPGSV,3,2,11,29,29,094,32,27,26,272,37,39,22,164,,18,18,150,*7B
$GPGSV,3,3,11,05,16,032,36,07,07,345,29,31,06,209,*49
$SDHDG,220.2,,,2.9,E*3C
$SDHDG,220.2,,,2.9,E*3C
$GPRMC,134609,A,5812.7404,N,01132.8510,E,0.0,67.0,270715,2.9,E,A*2A
$GPVTG,67.0,T,64.1,M,0.0,N,0.0,K,A*21
$GPZDA,134609,27,07,2015,-01,00*69
$GPAAM,,,,N,*38
$GPAPB,,,,,,,,,,,,,,,N*26
$GPBOD,,T,,M,,*47
$GPRMB,,,,,,,,,,,,,,N*04
$GPXTE,,,,,N,N*5E
$SDDBT,12.0,f,3.6,M,2.0,F*32
$SDDPT,3.6,0.-6,*55
$SDMTW,15.0,C*00
$SDVLW,,N,1128.6,N,0.0,N,0.0,N*48
$SDVHW,223.1,T,220.2,M,0.0,N,0.0,K*42
$WIMWD,,T,,M,,N,,M*5A
$WIMWV,,R,,N,V*34
$WIMWV,,T,,N,V*32
$RATLL,01,5812.6928,N,01131.9485,E,1 (Broadband 4G - 2782 B),134609,T,*55
$RATTM,01,0.48,264.3,T,0.0,2.9,T,0.48,,N,1 (Broadband 4G - 2782 B),T,,134609,M*5B
$SDHDG,220.2,,,2.9,E*3C
$IIXDR,C,C,,C,AIRTEMP,A,-1.-3,D,HEEL,A,-4.-2,D,TRIM,P,,B,BARO,A,A,,D,RUDDER*01
$GPGGA,134609,5812.7404,N,01132.8510,E,1,08,1.63,-6,M,40.4,M,,*46
$SDHDG,220.2,,,2.9,E*3C
$SDHDG,220.1,,,2.9,E*3F
$SDHDG,220.1,,,2.9,E*3F
$SDHDG,220.0,,,2.9,E*3E
$GPGLL,5812.7404,N,01132.8508,E,134610,A,A*4B
$SDHDG,220.0,,,2.9,E*3E
$SDHDG,219.9,,,2.9,E*3D
$SDHDG,219.9,,,2.9,E*3D
$GPGSA,A,3,21,26,16,20,29,27,18,05,07,,,,1.66,0.95,1.36*0C
$GPGSV,3,1,11,21,71,137,30,26,66,213,38,16,59,284,43,20,37,085,36*7B
$GPGSV,3,2,11,29,29,094,37,27,26,272,37,39,22,164,,18,18,150,30*7D
$GPGSV,3,3,11,05,16,032,37,07,07,345,29,31,06,209,*48
$SDHDG,219.8,,,2.9,E*3C
$SDHDG,219.8,,,2.9,E*3C
$GPRMC,134610,A,5812.7403,N,01132.8509,E,0.0,67.0,270715,2.9,E,A*2D
$GPVTG,67.0,T,64.1,M,0.0,N,0.0,K,A*21
$GPZDA,134610,27,07,2015,-01,00*61
$GPAAM,,,,N,*38
$GPAPB,,,,,,,,,,,,,,,N*26
$GPBOD,,T,,M,,*47
$GPRMB,,,,,,,,,,,,,,N*04
$GPXTE,,,,,N,N*5E
$SDDBT,12.1,f,3.7,M,2.0,F*32
$SDDPT,3.7,0.-6,*54
$SDMTW,15.0,C*00
$SDVLW,,N,1128.6,N,0.0,N,0.0,N*48
$SDVHW,222.7,T,219.8,M,0.0,N,0.0,K*45
$WIMWD,,T,,M,,N,,M*5A
$WIMWV,,R,,N,V*34
$WIMWV,,T,,N,V*32
$RATLL,01,5812.6929,N,01131.9482,E,1 (Broadband 4G - 2782 B),134610,T,*5B
$RATTM,01,0.48,264.3,T,0.0,2.9,T,0.48,,N,1 (Broadband 4G - 2782 B),T,,134610,M*53
$SDHDG,219.8,,,2.9,E*3C
$IIXDR,C,C,,C,AIRTEMP,A,-2.-2,D,HEEL,A,-4.-2,D,TRIM,P,,B,BARO,A,A,,D,RUDDER*03
$GPGGA,134610,5812.7403,N,01132.8509,E,1,09,0.95,-6,M,40.4,M,,*48
$SDHDG,219.8,,,2.9,E*3C
$SDHDG,219.8,,,2.9,E*3C
$SDHDG,219.8,,,2.9,E*3C
$SDHDG,219.8,,,2.9,E*3C
$GPGLL,5812.7401,N,01132.8511,E,134611,A,A*47
$SDHDG,219.9,,,2.9,E*3D
$SDHDG,219.9,,,2.9,E*3D
$SDHDG,220.0,,,2.9,E*3E
$GPGSA,A,3,21,26,16,20,29,27,18,05,07,,,,1.66,0.95,1.36*0C
$GPGSV,3,1,11,21,71,137,30,26,66,213,38,16,59,284,43,20,37,085,36*7B
$GPGSV,3,2,11,29,29,094,33,27,26,272,37,39,22,164,,18,18,150,23*7B
$GPGSV,3,3,11,05,16,032,36,07,07,345,29,31,06,209,*49
$SDHDG,220.1,,,2.9,E*3F
$SDHDG,220.1,,,2.9,E*3F
$GPRMC,134611,A,5812.7402,N,01132.8511,E,0.0,67.0,270715,2.9,E,A*24
$GPVTG,67.0,T,64.1,M,0.0,N,0.0,K,A*21
$GPZDA,134611,27,07,2015,-01,00*60
$GPAAM,,,,N,*38
$GPAPB,,,,,,,,,,,,,,,N*26
$GPBOD,,T,,M,,*47
$GPRMB,,,,,,,,,,,,,,N*04
$GPXTE,,,,,N,N*5E
$SDDBT,11.3,f,3.4,M,1.8,F*3B
$SDDPT,3.4,0.-6,*57
$SDMTW,15.0,C*00
$SDVLW,,N,1128.6,N,0.0,N,0.0,N*48
$SDVHW,223.0,T,220.1,M,0.0,N,0.0,K*40
$WIMWD,,T,,M,,N,,M*5A
$WIMWV,,R,,N,V*34
$WIMWV,,T,,N,V*32
$RATLL,01,5812.6929,N,01131.9482,E,1 (Broadband 4G - 2782 B),134611,T,*5A
$RATTM,01,0.48,264.3,T,0.0,2.9,T,0.48,,N,1 (Broadband 4G - 2782 B),T,,134611,M*52
$SDHDG,220.3,,,2.9,E*3D
$IIXDR,C,C,,C,AIRTEMP,A,-1.-2,D,HEEL,A,-4.-3,D,TRIM,P,,B,BARO,A,A,,D,RUDDER*01
$GPGGA,134611,5812.7402,N,01132.8511,E,1,09,0.95,-6,M,40.4,M,,*41
$SDHDG,220.3,,,2.9,E*3D
$SDHDG,220.3,,,2.9,E*3D
$SDHDG,220.3,,,2.9,E*3D
$SDHDG,220.3,,,2.9,E*3D
$GPGLL,5812.7403,N,01132.8510,E,134612,A,A*47
$SDHDG,220.3,,,2.9,E*3D
$SDHDG,220.3,,,2.9,E*3D
$SDHDG,220.4,,,2.9,E*3A
$GPGSA,A,3,21,26,16,20,29,27,18,05,07,,,,1.66,0.95,1.36*0C
$GPGSV,3,1,11,21,71,137,29,26,66,213,38,16,59,284,43,20,37,085,36*73
$GPGSV,3,2,11,29,29,094,34,27,26,272,37,39,22,164,,18,18,150,21*7E
$GPGSV,3,3,11,05,16,032,36,07,07,345,28,31,06,209,*48
$SDHDG,220.4,,,2.9,E*3A
$SDHDG,220.4,,,2.9,E*3A
$GPRMC,134612,A,5812.7403,N,01132.8511,E,0.0,67.0,270715,2.9,E,A*26
$GPVTG,67.0,T,64.1,M,0.0,N,0.0,K,A*21
$GPZDA,134612,27,07,2015,-01,00*63
$GPAAM,,,,N,*38
$GPAPB,,,,,,,,,,,,,,,N*26
$GPBOD,,T,,M,,*47
$GPRMB,,,,,,,,,,,,,,N*04
$GPXTE,,,,,N,N*5E
$SDDBT,12.0,f,3.6,M,2.0,F*32
$SDDPT,3.6,0.-6,*55
$SDMTW,15.0,C*00
$SDVLW,,N,1128.6,N,0.0,N,0.0,N*48
$SDVHW,223.3,T,220.4,M,0.0,N,0.0,K*46
$WIMWD,,T,,M,,N,,M*5A
$WIMWV,,R,,N,V*34
$WIMWV,,T,,N,V*32
$RATLL,01,5812.6929,N,01131.9482,E,1 (Broadband 4G - 2782 B),134612,T,*59
$RATTM,01,0.48,264.3,T,0.0,2.9,T,0.48,,N,1 (Broadband 4G - 2782 B),T,,134612,M*51
$SDHDG,220.4,,,2.9,E*3A
$IIXDR,C,C,,C,AIRTEMP,A,-1.-8,D,HEEL,A,-4.-1,D,TRIM,P,,B,BARO,A,A,,D,RUDDER*09
$GPGGA,134612,5812.7403,N,01132.8511,E,1,09,0.95,-6,M,40.4,M,,*43
$SDHDG,220.4,,,2.9,E*3A
$SDHDG,220.3,,,2.9,E*3D
$SDHDG,220.3,,,2.9,E*3D
$SDHDG,220.1,,,2.9,E*3F
$GPGLL,5812.7402,N,01132.8511,E,134613,A,A*46
$SDHDG,220.1,,,2.9,E*3F
$SDHDG,220.1,,,2.9,E*3F
$SDHDG,220.1,,,2.9,E*3F
$GPGSA,A,3,21,26,16,20,29,27,18,05,07,,,,1.66,0.95,1.36*0C
$GPGSV,3,1,11,21,71,137,30,26,66,213,38,16,59,284,43,20,37,085,36*7B
$GPGSV,3,2,11,29,29,094,36,27,26,272,37,39,22,164,,18,18,150,30*7C
$GPGSV,3,3,11,05,16,032,36,07,07,345,28,31,06,209,*48
$SDHDG,220.1,,,2.9,E*3F
$SDHDG,220.1,,,2.9,E*3F
$GPRMC,134613,A,5812.7402,N,01132.8513,E,0.0,67.0,270715,2.9,E,A*24
$GPVTG,67.0,T,64.1,M,0.0,N,0.0,K,A*21
$GPZDA,134613,27,07,2015,-01,00*62
$GPAAM,,,,N,*38
$GPAPB,,,,,,,,,,,,,,,N*26
$GPBOD,,T,,M,,*47
$GPRMB,,,,,,,,,,,,,,N*04
$GPXTE,,,,,N,N*5E
$SDDBT,12.2,f,3.7,M,2.0,F*31
$SDDPT,3.7,0.-6,*54
$SDMTW,15.0,C*00
$SDVLW,,N,1128.6,N,0.0,N,0.0,N*48
$SDVHW,223.1,T,220.1,M,0.0,N,0.0,K*41
$WIMWD,,T,,M,,N,,M*5A
$WIMWV,,R,,N,V*34
$WIMWV,,T,,N,V*32
$RATLL,01,5812.6894,N,01131.9501,E,1 (Broadband 4G - 2782 B),134613,T,*55
$RATTM,01,0.48,263.9,T,0.0,2.9,T,0.48,,N,1 (Broadband 4G - 2782 B),T,,134613,M*5D
$SDHDG,220.1,,,2.9,E*3F
$IIXDR,C,C,,C,AIRTEMP,A,-2.-4,D,HEEL,A,-4.-2,D,TRIM,P,,B,BARO,A,A,,D,RUDDER*05
$GPGGA,134613,5812.7402,N,01132.8513,E,1,09,0.95,-6,M,40.4,M,,*41
$SDHDG,220.1,,,2.9,E*3F
$SDHDG,220.3,,,2.9,E*3D
$SDHDG,220.3,,,2.9,E*3D
$SDHDG,220.4,,,2.9,E*3A
$GPGLL,5812.7402,N,01132.8513,E,134614,A,A*43
$SDHDG,220.5,,,2.9,E*3B
$SDHDG,220.5,,,2.9,E*3B
$SDHDG,220.6,,,2.9,E*38
$GPGSA,A,3,21,26,16,20,29,27,05,07,,,,,1.66,0.95,1.36*05
$GPGSV,3,1,11,21,71,137,34,26,66,213,39,16,59,284,43,20,37,085,36*7E
$GPGSV,3,2,11,29,29,094,34,27,26,272,37,18,18,150,,05,16,032,36*72
$GPGSV,3,3,11,44,09,121,,07,07,345,28,31,06,209,*45
$SDHDG,220.6,,,2.9,E*38
$SDHDG,220.6,,,2.9,E*38
$GPRMC,134614,A,5812.7402,N,01132.8513,E,0.0,67.0,270715,2.9,E,A*23
$GPVTG,67.0,T,64.1,M,0.0,N,0.0,K,A*21
$GPZDA,134614,27,07,2015,-01,00*65
$GPAAM,,,,N,*38
$GPAPB,,,,,,,,,,,,,,,N*26
$GPBOD,,T,,M,,*47
$GPRMB,,,,,,,,,,,,,,N*04
$GPXTE,,,,,N,N*5E
$SDDBT,12.0,f,3.6,M,2.0,F*32
$SDDPT,3.6,0.-6,*55
$SDMTW,15.0,C*00
$SDVLW,,N,1128.6,N,0.0,N,0.0,N*48
$SDVHW,223.5,T,220.6,M,0.0,N,0.0,K*42
$WIMWD,,T,,M,,N,,M*5A
$WIMWV,,R,,N,V*34
$WIMWV,,T,,N,V*32
$RATLL,01,5812.6894,N,01131.9501,E,1 (Broadband 4G - 2782 B),134614,T,*52
$RATTM,01,0.48,263.9,T,0.0,2.9,T,0.48,,N,1 (Broadband 4G - 2782 B),T,,134614,M*5A
$SDHDG,220.6,,,2.9,E*38
$IIXDR,C,C,,C,AIRTEMP,A,-1.-4,D,HEEL,A,-4.-2,D,TRIM,P,,B,BARO,A,A,,D,RUDDER*06
$GPGGA,134614,5812.7402,N,01132.8513,E,1,08,0.95,-6,M,40.4,M,,*47
$SDHDG,220.7,,,2.9,E*39
$SDHDG,220.7,,,2.9,E*39
$SDHDG,220.7,,,2.9,E*39
$SDHDG,220.7,,,2.9,E*39
$GPGLL,5812.7403,N,01132.8512,E,134615,A,A*42
$SDHDG,220.7,,,2.9,E*39
$SDHDG,220.6,,,2.9,E*38
$SDHDG,220.6,,,2.9,E*38
$GPGSA,A,3,21,26,16,20,29,27,18,05,07,,,,1.66,0.95,1.36*0C
$GPGSV,3,1,11,21,71,137,31,26,66,213,39,16,59,284,43,20,37,085,36*7B
$GPGSV,3,2,11,29,29,094,35,27,26,272,37,18,18,150,29,05,16,032,36*78
$GPGSV,3,3,11,44,09,121,,07,07,345,28,31,06,209,*45
$SDHDG,220.5,,,2.9,E*3B
$SDHDG,220.5,,,2.9,E*3B
$GPRMC,134615,A,5812.7404,N,01132.8512,E,0.0,67.0,270715,2.9,E,A*25
$GPVTG,67.0,T,64.1,M,0.0,N,0.0,K,A*21
$GPZDA,134615,27,07,2015,-01,00*64
$GPAAM,,,,N,*38
$GPAPB,,,,,,,,,,,,,,,N*26
$GPBOD,,T,,M,,*47
$GPRMB,,,,,,,,,,,,,,N*04
$GPXTE,,,,,N,N*5E
$SDDBT,11.8,f,3.6,M,1.9,F*33
$SDDPT,3.6,0.-6,*55
$SDMTW,15.0,C*00
$SDVLW,,N,1128.6,N,0.0,N,0.0,N*48
$SDVHW,223.4,T,220.5,M,0.0,N,0.0,K*40
$WIMWD,,T,,M,,N,,M*5A
$WIMWV,,R,,N,V*34
$WIMWV,,T,,N,V*32
$RATLL,01,5812.6894,N,01131.9501,E,1 (Broadband 4G - 2782 B),134615,T,*53
$RATTM,01,0.48,263.9,T,0.0,2.9,T,0.48,,N,1 (Broadband 4G - 2782 B),T,,134615,M*5B
$SDHDG,220.5,,,2.9,E*3B
$IIXDR,C,C,,C,AIRTEMP,A,-2.-4,D,HEEL,A,-4.-2,D,TRIM,P,,B,BARO,A,A,,D,RUDDER*05
$GPGGA,134615,5812.7404,N,01132.8512,E,1,09,0.95,-6,M,40.4,M,,*40
$SDHDG,220.4,,,2.9,E*3A
$SDHDG,220.4,,,2.9,E*3A
$SDHDG,220.3,,,2.9,E*3D
$SDHDG,220.3,,,2.9,E*3D
$GPGLL,5812.7404,N,01132.8511,E,134616,A,A*45
$SDHDG,220.3,,,2.9,E*3D
$SDHDG,220.3,,,2.9,E*3D
$SDHDG,220.3,,,2.9,E*3D
$GPGSA,A,3,21,26,16,20,29,27,18,05,07,,,,1.66,0.95,1.36*0C
$GPGSV,3,1,11,21,71,137,31,26,66,213,38,16,59,284,43,20,37,085,36*7A
$GPGSV,3,2,11,29,29,094,34,27,26,272,37,18,18,150,22,05,16,032,36*72
$GPGSV,3,3,11,44,09,121,,07,07,345,28,31,06,209,*45
$SDHDG,220.3,,,2.9,E*3D
$SDHDG,220.3,,,2.9,E*3D
$GPRMC,134616,A,5812.7403,N,01132.8513,E,0.0,67.0,270715,2.9,E,A*20
$GPVTG,67.0,T,64.1,M,0.0,N,0.0,K,A*21
$GPZDA,134616,27,07,2015,-01,00*67
$GPAAM,,,,N,*38
$GPAPB,,,,,,,,,,,,,,,N*26
$GPBOD,,T,,M,,*47
$GPRMB,,,,,,,,,,,,,,N*04
$GPXTE,,,,,N,N*5E
$SDDBT,14.3,f,4.3,M,2.3,F*36
$SDDPT,4.3,0.-6,*57
$SDMTW,15.0,C*00
$SDVLW,,N,1128.6,N,0.0,N,0.0,N*48
$SDVHW,223.3,T,220.4,M,0.0,N,0.0,K*46
$WIMWD,,T,,M,,N,,M*5A
$WIMWV,,R,,N,V*34
$WIMWV,,T,,N,V*32
$RATLL,01,5812.6887,N,01131.9493,E,1 (Broadband 4G - 2782 B),134616,T,*58
$RATTM,01,0.48,263.8,T,1.2,353.9,T,0.48,-2.0,N,1 (Broadband 4G - 2782 B),T,,134616,M*5C
$SDHDG,220.4,,,2.9,E*3A
$IIXDR,C,C,,C,AIRTEMP,A,-1.-8,D,HEEL,A,-4.-2,D,TRIM,P,,B,BARO,A,A,,D,RUDDER*0A
$GPGGA,134616,5812.7403,N,01132.8513,E,1,09,0.95,-6,M,40.4,M,,*45
$SDHDG,220.5,,,2.9,E*3B
$SDHDG,220.6,,,2.9,E*38
$SDHDG,220.6,,,2.9,E*38
$SDHDG,220.6,,,2.9,E*38
$GPGLL,5812.7403,N,01132.8513,E,134617,A,A*41
$SDHDG,220.6,,,2.9,E*38
$SDHDG,220.6,,,2.9,E*38
$SDHDG,220.6,,,2.9,E*38
$GPGSA,A,3,21,26,16,20,29,27,18,05,,,,,1.66,0.95,1.36*0B
$GPGSV,3,1,11,21,71,137,34,26,66,213,39,16,59,284,43,20,37,085,36*7E
$GPGSV,3,2,11,29,29,094,33,27,26,272,37,18,18,150,21,05,16,032,36*76
$GPGSV,3,3,11,07,07,345,,31,06,209,,34,188,375,*73
$SDHDG,220.6,,,2.9,E*38
$SDHDG,220.6,,,2.9,E*38
$GPRMC,134617,A,5812.7404,N,01132.8511,E,0.0,67.0,270715,2.9,E,A*24
$GPVTG,67.0,T,64.1,M,0.0,N,0.0,K,A*21
$GPZDA,134617,27,07,2015,-01,00*66
$GPAAM,,,,N,*38
$GPAPB,,,,,,,,,,,,,,,N*26
$GPBOD,,T,,M,,*47
$GPRMB,,,,,,,,,,,,,,N*04
$GPXTE,,,,,N,N*5E
$SDDBT,14.3,f,4.3,M,2.3,F*36
$SDDPT,4.3,0.-6,*57
$SDMTW,15.0,C*00
$SDVLW,,N,1128.6,N,0.0,N,0.0,N*48
$SDVHW,223.5,T,220.6,M,0.0,N,0.0,K*42
$WIMWD,,T,,M,,N,,M*5A
$WIMWV,,R,,N,V*34
$WIMWV,,T,,N,V*32
$RATLL,01,5812.6887,N,01131.9493,E,1 (Broadband 4G - 2782 B),134617,T,*59
$RATTM,01,0.48,263.8,T,1.2,353.9,T,0.48,-2.0,N,1 (Broadband 4G - 2782 B),T,,134617,M*5D
$SDHDG,220.6,,,2.9,E*38
$IIXDR,C,C,,C,AIRTEMP,A,-1.-7,D,HEEL,A,-4.-2,D,TRIM,P,,B,BARO,A,A,,D,RUDDER*05
$GPGGA,134617,5812.7404,N,01132.8511,E,1,08,0.95,-6,M,40.4,M,,*40
$SDHDG,220.6,,,2.9,E*38
$SDHDG,220.5,,,2.9,E*3B
$SDHDG,220.5,,,2.9,E*3B
$GPGLL,5812.7405,N,01132.8510,E,134618,A,A*4B
$SDHDG,220.4,,,2.9,E*3A
$SDHDG,220.4,,,2.9,E*3A
$SDHDG,220.4,,,2.9,E*3A
$GPGSA,A,3,21,26,16,20,29,27,18,05,07,,,,1.66,0.95,1.36*0C
$GPGSV,3,1,11,21,71,137,29,26,66,213,38,16,59,284,43,20,37,085,36*73
$GPGSV,3,2,11,29,29,094,36,27,26,272,37,18,18,150,25,05,16,032,36*77
$GPGSV,3,3,11,07,07,345,28,31,06,209,,36,188,375,*7B
$SDHDG,220.3,,,2.9,E*3D
$SDHDG,220.3,,,2.9,E*3D
$SDHDG,220.3,,,2.9,E*3D
$GPRMC,134618,A,5812.7405,N,01132.8511,E,0.0,67.0,270715,2.9,E,A*2A
$GPVTG,67.0,T,64.1,M,0.0,N,0.0,K,A*21
$GPZDA,134618,27,07,2015,-01,00*69
$GPAAM,,,,N,*38
$GPAPB,,,,,,,,,,,,,,,N*26
$GPBOD,,T,,M,,*47
$GPRMB,,,,,,,,,,,,,,N*04
$GPXTE,,,,,N,N*5E
$SDDBT,12.7,f,3.9,M,2.1,F*3B
$SDDPT,3.9,0.-6,*5A
$SDMTW,15.0,C*00
$SDVLW,,N,1128.6,N,0.0,N,0.0,N*48
$SDVHW,223.2,T,220.3,M,0.0,N,0.0,K*40
$WIMWD,,T,,M,,N,,M*5A
$WIMWV,,R,,N,V*34
$WIMWV,,T,,N,V*32
$RATLL,01,5812.6887,N,01131.9493,E,1 (Broadband 4G - 2782 B),134618,T,*56
$RATTM,01,0.48,263.8,T,1.2,353.9,T,0.48,-2.0,N,1 (Broadband 4G - 2782 B),T,,134618,M*52
$IIXDR,C,C,,C,AIRTEMP,A,-2.-5,D,HEEL,A,-4.-2,D,TRIM,P,,B,BARO,A,A,,D,RUDDER*04
$GPGGA,134618,5812.7405,N,01132.8511,E,1,09,0.95,-6,M,40.4,M,,*4F
$SDHDG,220.3,,,2.9,E*3D
$SDHDG,220.3,,,2.9,E*3D
$SDHDG,220.3,,,2.9,E*3D
$SDHDG,220.3,,,2.9,E*3D
$GPGLL,5812.7405,N,01132.8511,E,134619,A,A*4B
$SDHDG,220.3,,,2.9,E*3D
$SDHDG,220.3,,,2.9,E*3D
$SDHDG,220.3,,,2.9,E*3D
$GPGSA,A,3,21,26,16,20,29,27,05,07,,,,,2.86,1.63,2.34*01
$GPGSV,3,1,11,21,71,137,33,26,66,213,39,16,59,284,43,20,37,085,36*79
$GPGSV,3,2,11,29,29,094,33,27,26,272,37,18,18,150,,05,16,032,36*75
$GPGSV,3,3,11,07,07,345,28,31,06,209,,38,188,375,*75
$SDHDG,220.3,,,2.9,E*3D
$SDHDG,220.4,,,2.9,E*3A
$SDHDG,220.4,,,2.9,E*3A
$GPRMC,134619,A,5812.7406,N,01132.8508,E,0.0,67.0,270715,2.9,E,A*20
$GPVTG,67.0,T,64.1,M,0.0,N,0.0,K,A*21
$GPZDA,134619,27,07,2015,-01,00*68
$GPAAM,,,,N,*38
$GPAPB,,,,,,,,,,,,,,,N*26
$GPBOD,,T,,M,,*47
$GPRMB,,,,,,,,,,,,,,N*04
$GPXTE,,,,,N,N*5E
$SDDBT,13.0,f,3.9,M,2.1,F*3D
$SDDPT,3.9,0.-6,*5A
$SDMTW,15.0,C*00
$SDVLW,,N,1128.6,N,0.0,N,0.0,N*48
$SDVHW,223.3,T,220.4,M,0.0,N,0.0,K*46
$WIMWD,,T,,M,,N,,M*5A
$WIMWV,,R,,N,V*34
$WIMWV,,T,,N,V*32
$RATLL,01,5812.6872,N,01131.9496,E,1 (Broadband 4G - 2782 B),134619,T,*58
$RATTM,01,0.48,263.6,T,1.2,353.9,T,0.48,-2.0,N,1 (Broadband 4G - 2782 B),T,,134619,M*5D
$IIXDR,C,C,,C,AIRTEMP,A,-1.-4,D,HEEL,A,-4.-3,D,TRIM,P,,B,BARO,A,A,,D,RUDDER*07
$GPGGA,134619,5812.7406,N,01132.8508,E,1,08,1.63,-6,M,40.4,M,,*4C
$SDHDG,220.4,,,2.9,E*3A
$SDHDG,220.5,,,2.9,E*3B
$SDHDG,220.5,,,2.9,E*3B
$SDHDG,220.5,,,2.9,E*3B
$GPGLL,5812.7407,N,01132.8507,E,134620,A,A*44
$SDHDG,220.5,,,2.9,E*3B
$SDHDG,220.5,,,2.9,E*3B
$SDHDG,220.5,,,2.9,E*3B
$GPGSA,A,3,21,26,16,20,29,27,18,05,07,,,,1.66,0.95,1.36*0C
$GPGSV,3,1,11,21,71,137,29,26,65,213,39,16,59,284,43,20,37,085,36*71
$GPGSV,3,2,11,29,29,094,33,27,26,272,37,18,18,150,21,05,16,032,36*76
$GPGSV,3,3,11,07,07,345,28,31,06,209,,40,188,375,*7A
$SDHDG,220.5,,,2.9,E*3B
$SDHDG,220.5,,,2.9,E*3B
$SDHDG,220.5,,,2.9,E*3B
$GPRMC,134620,A,5812.7408,N,01132.8506,E,0.0,67.0,270715,2.9,E,A*2A
$GPVTG,67.0,T,64.1,M,0.0,N,0.0,K,A*21
$GPZDA,134620,27,07,2015,-01,00*62
$GPAAM,,,,N,*38
$GPAPB,,,,,,,,,,,,,,,N*26
$GPBOD,,T,,M,,*47
$GPRMB,,,,,,,,,,,,,,N*04
$GPXTE,,,,,N,N*5E
$SDDBT,12.1,f,3.6,M,2.0,F*33
$SDDPT,3.6,0.-6,*55
$SDMTW,15.0,C*00
$SDVLW,,N,1128.6,N,0.0,N,0.0,N*48
$SDVHW,223.3,T,220.4,M,0.0,N,0.0,K*46
$WIMWD,,T,,M,,N,,M*5A
$WIMWV,,R,,N,V*34
$WIMWV,,T,,N,V*32
$RATLL,01,5812.6872,N,01131.9496,E,1 (Broadband 4G - 2782 B),134620,T,*52
$RATTM,01,0.48,263.6,T,1.2,353.9,T,0.48,-2.0,N,1 (Broadband 4G - 2782 B),T,,134620,M*57
$IIXDR,C,C,,C,AIRTEMP,A,-2.-1,D,HEEL,A,-4.-3,D,TRIM,P,,B,BARO,A,A,,D,RUDDER*01
$GPGGA,134620,5812.7408,N,01132.8506,E,1,09,0.95,-6,M,40.4,M,,*4F
$SDHDG,220.4,,,2.9,E*3A
$SDHDG,220.4,,,2.9,E*3A
$SDHDG,220.4,,,2.9,E*3A
$SDHDG,220.4,,,2.9,E*3A
$GPGLL,5812.7408,N,01132.8505,E,134621,A,A*48
$SDHDG,220.4,,,2.9,E*3A
$SDHDG,220.3,,,2.9,E*3D
$SDHDG,220.3,,,2.9,E*3D
$GPGSA,A,3,21,26,16,20,29,27,18,05,07,,,,1.66,0.95,1.36*0C
$GPGSV,3,1,11,21,71,137,28,26,65,213,39,16,59,284,43,20,37,085,36*70
$GPGSV,3,2,11,29,29,094,34,27,26,272,37,18,18,150,24,05,16,032,36*74
$GPGSV,3,3,11,07,07,345,28,31,06,209,,41,188,375,*7B
$SDHDG,220.4,,,2.9,E*3A
$SDHDG,220.4,,,2.9,E*3A
$SDHDG,220.4,,,2.9,E*3A
$GPRMC,134621,A,5812.7409,N,01132.8507,E,0.0,67.0,270715,2.9,E,A*2B
$GPVTG,67.0,T,64.1,M,0.0,N,0.0,K,A*21
$GPZDA,134621,27,07,2015,-01,00*63
$GPAAM,,,,N,*38
$GPAPB,,,,,,,,,,,,,,,N*26
$GPBOD,,T,,M,,*47
$GPRMB,,,,,,,,,,,,,,N*04
$GPXTE,,,,,N,N*5E
$SDDBT,13.6,f,4.1,M,2.2,F*37
$SDDPT,4.1,0.-6,*55
$SDMTW,15.0,C*00
$SDVLW,,N,1128.6,N,0.0,N,0.0,N*48
$SDVHW,223.3,T,220.4,M,0.0,N,0.0,K*46
$WIMWD,,T,,M,,N,,M*5A
$WIMWV,,R,,N,V*34
$WIMWV,,T,,N,V*32
$RATLL,01,5812.6872,N,01131.9496,E,1 (Broadband 4G - 2782 B),134621,T,*53
$RATTM,01,0.48,263.6,T,1.2,353.9,T,0.48,-2.0,N,1 (Broadband 4G - 2782 B),T,,134621,M*56
$IIXDR,C,C,,C,AIRTEMP,A,-2.-1,D,HEEL,A,-4.-1,D,TRIM,P,,B,BARO,A,A,,D,RUDDER*03
$GPGGA,134621,5812.7409,N,01132.8507,E,1,09,0.95,-6,M,40.4,M,,*4E
$SDHDG,220.4,,,2.9,E*3A
$SDHDG,220.5,,,2.9,E*3B
$SDHDG,220.5,,,2.9,E*3B
$SDHDG,220.6,,,2.9,E*38
$GPGLL,5812.7409,N,01132.8507,E,134622,A,A*48
$SDHDG,220.6,,,2.9,E*38
$SDHDG,220.6,,,2.9,E*38
$SDHDG,220.6,,,2.9,E*38
$GPGSA,A,3,21,26,16,20,29,27,18,05,07,,,,1.66,0.95,1.36*0C
$GPGSV,3,1,11,21,71,137,32,26,65,213,39,16,59,284,43,20,37,085,36*7B
$GPGSV,3,2,11,29,29,094,32,27,26,272,37,18,18,150,22,05,16,032,36*74
$GPGSV,3,3,11,07,07,345,28,31,06,209,,43,188,375,*79
$SDHDG,220.6,,,2.9,E*38
$SDHDG,220.6,,,2.9,E*38
$SDHDG,220.6,,,2.9,E*38
$GPRMC,134622,A,5812.7409,N,01132.8506,E,0.0,67.0,270715,2.9,E,A*29
$GPVTG,67.0,T,64.1,M,0.0,N,0.0,K,A*21
$GPZDA,134622,27,07,2015,-01,00*60
$GPAAM,,,,N,*38
$GPAPB,,,,,,,,,,,,,,,N*26
$GPBOD,,T,,M,,*47
$GPRMB,,,,,,,,,,,,,,N*04
$GPXTE,,,,,N,N*5E
$SDDBT,13.6,f,4.1,M,2.2,F*37
$SDDPT,4.1,0.-6,*55
$SDMTW,15.0,C*00
$SDVLW,,N,1128.6,N,0.0,N,0.0,N*48
$SDVHW,223.5,T,220.6,M,0.0,N,0.0,K*42
$WIMWD,,T,,M,,N,,M*5A
$WIMWV,,R,,N,V*34
$WIMWV,,T,,N,V*32
$RATLL,01,5812.6859,N,01131.9496,E,1 (Broadband 4G - 2782 B),134622,T,*59
$RATTM,01,0.48,263.4,T,1.2,353.6,T,0.48,-1.9,N,1 (Broadband 4G - 2782 B),T,,134622,M*52
$IIXDR,C,C,,C,AIRTEMP,A,-1.-5,D,HEEL,A,-4.-4,D,TRIM,P,,B,BARO,A,A,,D,RUDDER*01
$GPGGA,134622,5812.7409,N,01132.8506,E,1,09,0.95,-6,M,40.4,M,,*4C
$SDHDG,220.8,,,2.9,E*36
$SDHDG,220.8,,,2.9,E*36
$SDHDG,220.8,,,2.9,E*36
$SDHDG,220.8,,,2.9,E*36
$GPGLL,5812.7410,N,01132.8508,E,134623,A,A*4E
$SDHDG,220.6,,,2.9,E*38
$SDHDG,220.6,,,2.9,E*38
$SDHDG,220.6,,,2.9,E*38
$GPGSA,A,3,21,26,16,20,29,27,05,07,,,,,2.86,1.63,2.35*00
$GPGSV,3,1,11,21,71,137,28,26,65,213,39,16,59,284,43,20,37,085,36*70
$GPGSV,3,2,11,29,29,094,35,27,26,272,37,18,18,150,,05,16,032,36*73
$GPGSV,3,3,11,07,07,345,28,31,06,209,,45,188,375,*7F
$SDHDG,220.5,,,2.9,E*3B
$SDHDG,220.5,,,2.9,E*3B
$SDHDG,220.5,,,2.9,E*3B
$GPRMC,134623,A,5812.7409,N,01132.8510,E,0.0,67.0,270715,2.9,E,A*2F
$GPVTG,67.0,T,64.1,M,0.0,N,0.0,K,A*21
$GPZDA,134623,27,07,2015,-01,00*61
$GPAAM,,,,N,*38
$GPAPB,,,,,,,,,,,,,,,N*26
$GPBOD,,T,,M,,*47
$GPRMB,,,,,,,,,,,,,,N*04
$GPXTE,,,,,N,N*5E
$SDDBT,11.7,f,3.5,M,1.9,F*3F
$SDDPT,3.5,0.-6,*56
$SDMTW,15.0,C*00
$SDVLW,,N,1128.6,N,0.0,N,0.0,N*48
$SDVHW,223.4,T,220.5,M,0.0,N,0.0,K*40
$WIMWD,,T,,M,,N,,M*5A
$WIMWV,,R,,N,V*34
$WIMWV,,T,,N,V*32
$RATLL,02,5813.7972,N,01134.4814,E,2 (Broadband 4G - 2782 B),134623,Q,*5B
$RATTM,02,1.36,39.1,T,0.0,2.9,T,,24751376.1,N,2 (Broadband 4G - 2782 B),Q,,134623,M*6C
$IIXDR,C,C,,C,AIRTEMP,A,-2.-2,D,HEEL,A,-4.-3,D,TRIM,P,,B,BARO,A,A,,D,RUDDER*02
$GPGGA,134623,5812.7410,N,01132.8510,E,1,08,0.95,-5,M,40.4,M,,*40
$SDHDG,220.5,,,2.9,E*3B
$SDHDG,220.5,,,2.9,E*3B
$SDHDG,220.5,,,2.9,E*3B
$SDHDG,220.5,,,2.9,E*3B
$GPGLL,5812.7410,N,01132.8511,E,134624,A,A*41
$SDHDG,220.4,,,2.9,E*3A
$SDHDG,220.4,,,2.9,E*3A
$SDHDG,220.4,,,2.9,E*3A
$GPGSA,A,3,21,26,16,20,29,27,18,05,07,,,,1.66,0.95,1.36*0C
$GPGSV,3,1,11,21,71,137,30,26,65,213,39,16,59,283,43,20,37,085,36*7E
$GPGSV,3,2,11,29,29,094,33,27,26,272,38,18,18,150,24,05,16,032,36*7C
$GPGSV,3,3,11,07,07,345,28,31,06,209,,46,188,375,*7C
$SDHDG,220.4,,,2.9,E*3A
$SDHDG,220.5,,,2.9,E*3B
$SDHDG,220.5,,,2.9,E*3B
$GPRMC,134624,A,5812.7410,N,01132.8511,E,0.0,67.0,270715,2.9,E,A*21
$GPVTG,67.0,T,64.1,M,0.0,N,0.0,K,A*21
$GPZDA,134624,27,07,2015,-01,00*66
$GPAAM,,,,N,*38
$GPAPB,,,,,,,,,,,,,,,N*26
$GPBOD,,T,,M,,*47
$GPRMB,,,,,,,,,,,,,,N*04
$GPXTE,,,,,N,N*5E
$SDDBT,14.6,f,4.4,M,2.4,F*33
$SDDPT,4.4,0.-6,*50
$SDMTW,15.0,C*00
$SDVLW,,N,1128.6,N,0.0,N,0.0,N*48
$SDVHW,223.4,T,220.5,M,0.0,N,0.0,K*40
$WIMWD,,T,,M,,N,,M*5A
$WIMWV,,R,,N,V*34
$WIMWV,,T,,N,V*32
$RATLL,01,5812.6902,N,01131.9501,E,1 (Broadband 4G - 2782 B),134624,T,*5F
$RATTM,01,0.48,263.9,T,0.0,2.9,T,0.48,,N,1 (Broadband 4G - 2782 B),T,,134624,M*59
$IIXDR,C,C,,C,AIRTEMP,A,-1.-8,D,HEEL,A,-4.-2,D,TRIM,P,,B,BARO,A,A,,D,RUDDER*0A
$GPGGA,134624,5812.7411,N,01132.8511,E,1,09,1.63,-6,M,40.4,M,,*4D
$SDHDG,220.5,,,2.9,E*3B
$SDHDG,220.5,,,2.9,E*3B
$SDHDG,220.5,,,2.9,E*3B
$SDHDG,220.5,,,2.9,E*3B
$GPGLL,5812.7410,N,01132.8510,E,134625,A,A*41
$SDHDG,220.5,,,2.9,E*3B
$SDHDG,220.5,,,2.9,E*3B
$SDHDG,220.5,,,2.9,E*3B
$GPGSA,A,3,21,26,16,20,29,27,05,07,,,,,2.86,1.63,2.35*00
$GPGSV,3,1,11,21,71,137,31,26,65,213,40,16,59,283,43,20,37,085,36*71
$GPGSV,3,2,11,29,29,094,32,27,26,272,38,18,18,150,,05,16,032,36*7B
$GPGSV,3,3,11,07,07,345,28,31,06,209,,49,188,375,*73
$SDHDG,220.5,,,2.9,E*3B
$SDHDG,220.4,,,2.9,E*3A
$SDHDG,220.4,,,2.9,E*3A
$GPRMC,134625,A,5812.7412,N,01132.8510,E,0.0,67.0,270715,2.9,E,A*23
$GPVTG,67.0,T,64.1,M,0.0,N,0.0,K,A*21
$GPZDA,134625,27,07,2015,-01,00*67
$GPAAM,,,,N,*38
$GPAPB,,,,,,,,,,,,,,,N*26
$GPBOD,,T,,M,,*47
$GPRMB,,,,,,,,,,,,,,N*04
$GPXTE,,,,,N,N*5E
$SDDBT,14.6,f,4.4,M,2.4,F*33
$SDDPT,4.4,0.-6,*50
$SDMTW,15.0,C*00
$SDVLW,,N,1128.6,N,0.0,N,0.0,N*48
$SDVHW,223.3,T,220.4,M,0.0,N,0.0,K*46
$WIMWD,,T,,M,,N,,M*5A
$WIMWV,,R,,N,V*34
$WIMWV,,T,,N,V*32
$RATLL,02,5813.7915,N,01134.4725,E,2 (Broadband 4G - 2782 B),134625,Q,*51
$RATTM,02,1.35,39.1,T,0.0,2.9,T,,24751376.1,N,2 (Broadband 4G - 2782 B),Q,,134625,M*69
$IIXDR,C,C,,C,AIRTEMP,A,-1.-6,D,HEEL,A,-4.-4,D,TRIM,P,,B,BARO,A,A,,D,RUDDER*02
$GPGGA,134625,5812.7412,N,01132.8510,E,1,08,0.95,-6,M,40.4,M,,*47
$SDHDG,220.4,,,2.9,E*3A
$SDHDG,220.4,,,2.9,E*3A
$SDHDG,220.3,,,2.9,E*3D
$SDHDG,220.3,,,2.9,E*3D
$GPGLL,5812.7413,N,01132.8511,E,134626,A,A*40
$SDHDG,220.3,,,2.9,E*3D
$SDHDG,220.3,,,2.9,E*3D
$SDHDG,220.2,,,2.9,E*3C
$GPGSA,A,3,21,26,16,20,29,27,18,05,07,,,,1.66,0.95,1.36*0C
$GPGSV,3,1,11,21,71,137,29,26,65,212,40,16,59,283,43,20,37,085,36*79
$GPGSV,3,2,11,29,29,094,35,27,26,272,38,18,18,150,23,05,16,032,36*7D
$GPGSV,3,3,11,07,07,345,28,31,06,209,,51,188,375,*7A
$SDHDG,220.2,,,2.9,E*3C
$SDHDG,220.2,,,2.9,E*3C
$SDHDG,220.2,,,2.9,E*3C
$GPRMC,134626,A,5812.7414,N,01132.8513,E,0.0,67.0,270715,2.9,E,A*25
$GPVTG,67.0,T,64.1,M,0.0,N,0.0,K,A*21
$GPZDA,134626,27,07,2015,-01,00*64
$GPAAM,,,,N,*38
$GPAPB,,,,,,,,,,,,,,,N*26
$GPBOD,,T,,M,,*47
$GPRMB,,,,,,,,,,,,,,N*04
$GPXTE,,,,,N,N*5E
$SDDBT,11.8,f,3.6,M,1.9,F*33
$SDDPT,3.6,0.-6,*55
$SDMTW,15.0,C*00
$SDVLW,,N,1128.6,N,0.0,N,0.0,N*48
$SDVHW,223.1,T,220.2,M,0.0,N,0.0,K*42
$WIMWD,,T,,M,,N,,M*5A
$WIMWV,,R,,N,V*34
$WIMWV,,T,,N,V*32
$RATLL,01,5812.6902,N,01131.9501,E,1 (Broadband 4G - 2782 B),134626,T,*5D
$RATTM,01,0.48,263.9,T,0.0,2.9,T,0.48,,N,1 (Broadband 4G - 2782 B),T,,134626,M*5B
$IIXDR,C,C,,C,AIRTEMP,A,-1.-9,D,HEEL,A,-4.-2,D,TRIM,P,,B,BARO,A,A,,D,RUDDER*0B
$GPGGA,134626,5812.7414,N,01132.8513,E,1,09,1.63,-6,M,40.4,M,,*48
$SDHDG,220.2,,,2.9,E*3C
$SDHDG,220.2,,,2.9,E*3C
$SDHDG,220.2,,,2.9,E*3C
$SDHDG,220.2,,,2.9,E*3C
$GPGLL,5812.7414,N,01132.8513,E,134627,A,A*44
$SDHDG,220.2,,,2.9,E*3C
$SDHDG,220.2,,,2.9,E*3C
$SDHDG,220.2,,,2.9,E*3C
$GPGSA,A,3,21,26,16,20,29,27,05,07,,,,,2.86,1.63,2.35*00
$GPGSV,3,1,11,21,71,137,29,26,65,212,40,16,59,283,43,20,37,085,36*79
$GPGSV,3,2,11,29,29,094,33,27,26,272,38,18,18,150,,05,16,032,36*7A
$GPGSV,3,3,11,07,07,345,28,31,06,209,,42,188,375,*78
$SDHDG,220.2,,,2.9,E*3C
$SDHDG,220.3,,,2.9,E*3D
$SDHDG,220.3,,,2.9,E*3D
$GPRMC,134627,A,5812.7414,N,01132.8513,E,0.0,67.0,270715,2.9,E,A*24
$GPVTG,67.0,T,64.1,M,0.0,N,0.0,K,A*21
$GPZDA,134627,27,07,2015,-01,00*65
$GPAAM,,,,N,*38
$GPAPB,,,,,,,,,,,,,,,N*26
$GPBOD,,T,,M,,*47
$GPRMB,,,,,,,,,,,,,,N*04
$GPXTE,,,,,N,N*5E
$SDDBT,11.8,f,3.6,M,1.9,F*33
$SDDPT,3.6,0.-6,*55
$SDMTW,15.0,C*00
$SDVLW,,N,1128.6,N,0.0,N,0.0,N*48
$SDVHW,223.2,T,220.3,M,0.0,N,0.0,K*40
$WIMWD,,T,,M,,N,,M*5A
$WIMWV,,R,,N,V*34
$WIMWV,,T,,N,V*32
$RATLL,02,5813.7915,N,01134.4725,E,2 (Broadband 4G - 2782 B),134627,Q,*53
$RATTM,02,1.35,39.1,T,0.0,2.9,T,,24751376.1,N,2 (Broadband 4G - 2782 B),Q,,134627,M*6B
$IIXDR,C,C,,C,AIRTEMP,A,-1.-6,D,HEEL,A,-4.-3,D,TRIM,P,,B,BARO,A,A,,D,RUDDER*05
$GPGGA,134627,5812.7413,N,01132.8513,E,1,08,0.95,-6,M,40.4,M,,*47
$SDHDG,220.3,,,2.9,E*3D
$SDHDG,220.3,,,2.9,E*3D
$SDHDG,220.3,,,2.9,E*3D
$SDHDG,220.3,,,2.9,E*3D
$GPGLL,5812.7413,N,01132.8514,E,134628,A,A*4B
$SDHDG,220.3,,,2.9,E*3D
$SDHDG,220.3,,,2.9,E*3D
$SDHDG,220.3,,,2.9,E*3D
$GPGSA,A,3,21,26,16,20,29,27,18,05,07,,,,1.66,0.95,1.36*0C
$GPGSV,3,1,11,21,71,137,28,26,65,212,40,16,59,283,43,20,37,085,36*78
$GPGSV,3,2,11,29,29,094,34,27,26,272,38,18,18,150,20,05,16,032,36*7F
$GPGSV,3,3,11,07,07,345,28,31,06,209,,50,188,375,*7B
$SDHDG,220.3,,,2.9,E*3D
$SDHDG,220.3,,,2.9,E*3D
$SDHDG,220.3,,,2.9,E*3D
$GPRMC,134628,A,5812.7414,N,01132.8514,E,0.0,67.0,270715,2.9,E,A*2C
$GPVTG,67.0,T,64.1,M,0.0,N,0.0,K,A*21
$GPZDA,134628,27,07,2015,-01,00*6A
$GPAAM,,,,N,*38
$GPAPB,,,,,,,,,,,,,,,N*26
$GPBOD,,T,,M,,*47
$GPRMB,,,,,,,,,,,,,,N*04
$GPXTE,,,,,N,N*5E
$SDDBT,12.0,f,3.6,M,2.0,F*32
$SDDPT,3.6,0.-6,*55
$SDMTW,15.0,C*00
$SDVLW,,N,1128.6,N,0.0,N,0.0,N*48
$SDVHW,223.2,T,220.3,M,0.0,N,0.0,K*40
$WIMWD,,T,,M,,N,,M*5A
$WIMWV,,R,,N,V*34
$WIMWV,,T,,N,V*32
$RATLL,01,5812.6906,N,01131.9503,E,1 (Broadband 4G - 2782 B),134628,T,*55
$RATTM,01,0.48,263.9,T,0.0,2.9,T,0.48,,N,1 (Broadband 4G - 2782 B),T,,134628,M*55
$IIXDR,C,C,,C,AIRTEMP,A,-1.-7,D,HEEL,A,-4.-3,D,TRIM,P,,B,BARO,A,A,,D,RUDDER*04
$GPGGA,134628,5812.7414,N,01132.8514,E,1,09,0.95,-6,M,40.4,M,,*49
$SDHDG,220.3,,,2.9,E*3D
$SDHDG,220.3,,,2.9,E*3D
$SDHDG,220.3,,,2.9,E*3D
$SDHDG,220.3,,,2.9,E*3D
$GPGLL,5812.7415,N,01132.8514,E,134629,A,A*4C
$SDHDG,220.3,,,2.9,E*3D
$SDHDG,220.3,,,2.9,E*3D
$SDHDG,220.2,,,2.9,E*3C
$GPGSA,A,3,21,26,16,20,29,27,18,05,07,,,,1.66,0.95,1.36*0C
$GPGSV,3,1,11,21,71,137,27,26,65,212,40,16,59,283,43,20,37,085,36*77
$GPGSV,3,2,11,29,29,094,35,27,26,272,38,18,18,150,27,05,16,032,36*79
$GPGSV,3,3,11,07,07,345,28,31,06,209,,48,188,375,*72
$SDHDG,220.2,,,2.9,E*3C
$SDHDG,220.2,,,2.9,E*3C
$SDHDG,220.2,,,2.9,E*3C
$GPRMC,134629,A,5812.7414,N,01132.8515,E,0.0,67.0,270715,2.9,E,A*2C
$GPVTG,67.0,T,64.1,M,0.0,N,0.0,K,A*21
$GPZDA,134629,27,07,2015,-01,00*6B
$GPAAM,,,,N,*38
$GPAPB,,,,,,,,,,,,,,,N*26
$GPBOD,,T,,M,,*47
$GPRMB,,,,,,,,,,,,,,N*04
$GPXTE,,,,,N,N*5E
$SDDBT,11.3,f,3.4,M,1.8,F*3B
$SDDPT,3.4,0.-6,*57
$SDMTW,15.0,C*00
$SDVLW,,N,1128.6,N,0.0,N,0.0,N*48
$SDVHW,223.1,T,220.2,M,0.0,N,0.0,K*42
$WIMWD,,T,,M,,N,,M*5A
$WIMWV,,R,,N,V*34
$WIMWV,,T,,N,V*32
$RATLL,02,5813.7808,N,01134.4675,E,2 (Broadband 4G - 2782 B),134629,Q,*54
$RATTM,02,1.34,39.3,T,0.0,2.9,T,,24751376.1,N,2 (Broadband 4G - 2782 B),Q,,134629,M*66
$IIXDR,C,C,,C,AIRTEMP,A,-1.-9,D,HEEL,A,-4.-2,D,TRIM,P,,B,BARO,A,A,,D,RUDDER*0B
$GPGGA,134629,5812.7414,N,01132.8515,E,1,09,0.95,-6,M,40.4,M,,*49
$SDHDG,220.2,,,2.9,E*3C
$SDHDG,220.2,,,2.9,E*3C
$SDHDG,220.2,,,2.9,E*3C
$SDHDG,220.2,,,2.9,E*3C
$GPGLL,5812.7413,N,01132.8515,E,134630,A,A*43
$SDHDG,220.2,,,2.9,E*3C
$SDHDG,220.2,,,2.9,E*3C
$SDHDG,220.2,,,2.9,E*3C
$GPGSA,A,3,21,26,16,20,29,27,18,05,07,,,,1.66,0.95,1.36*0C
$GPGSV,3,1,11,21,71,137,28,26,65,212,40,16,59,283,43,20,37,085,36*78
$GPGSV,3,2,11,29,29,094,33,27,26,272,38,18,18,150,24,05,16,032,36*7C
$GPGSV,3,3,11,07,07,345,28,31,06,209,,48,188,375,*72
$SDHDG,220.2,,,2.9,E*3C
$SDHDG,220.2,,,2.9,E*3C
$SDHDG,220.2,,,2.9,E*3C
$GPRMC,134630,A,5812.7415,N,01132.8515,E,0.0,67.0,270715,2.9,E,A*25
$GPVTG,67.0,T,64.1,M,0.0,N,0.0,K,A*21
$GPZDA,134630,27,07,2015,-01,00*63
$GPAAM,,,,N,*38
$GPAPB,,,,,,,,,,,,,,,N*26
$GPBOD,,T,,M,,*47
$GPRMB,,,,,,,,,,,,,,N*04
$GPXTE,,,,,N,N*5E
$SDDBT,11.7,f,3.5,M,1.9,F*3F
$SDDPT,3.5,0.-6,*56
$SDMTW,15.0,C*00
$SDVLW,,N,1128.6,N,0.0,N,0.0,N*48
$SDVHW,223.1,T,220.2,M,0.0,N,0.0,K*42
$WIMWD,,T,,M,,N,,M*5A
$WIMWV,,R,,N,V*34
$WIMWV,,T,,N,V*32
$RATLL,01,5812.6923,N,01131.9512,E,1 (Broadband 4G - 2782 B),134630,T,*5B
$RATTM,01,0.48,264.1,T,0.0,2.9,T,0.48,,N,1 (Broadband 4G - 2782 B),T,,134630,M*53
$IIXDR,C,C,,C,AIRTEMP,A,-1.-4,D,HEEL,A,-4.-2,D,TRIM,P,,B,BARO,A,A,,D,RUDDER*06
$GPGGA,134630,5812.7415,N,01132.8516,E,1,09,0.95,-6,M,40.4,M,,*43
$SDHDG,220.2,,,2.9,E*3C
$SDHDG,220.2,,,2.9,E*3C
$SDHDG,220.2,,,2.9,E*3C
$SDHDG,220.2,,,2.9,E*3C
$GPGLL,5812.7416,N,01132.8516,E,134631,A,A*44
$SDHDG,220.2,,,2.9,E*3C
$SDHDG,220.2,,,2.9,E*3C
$SDHDG,220.2,,,2.9,E*3C
$GPGSA,A,3,21,26,16,20,29,27,18,05,07,,,,1.66,0.95,1.36*0C
$GPGSV,3,1,11,21,71,136,29,26,65,212,39,16,59,283,43,20,37,085,36*76
$GPGSV,3,2,11,29,29,094,35,27,26,272,38,18,18,150,27,05,16,032,36*79
$GPGSV,3,3,11,07,07,345,28,31,06,209,,48,188,375,*72
$SDHDG,220.2,,,2.9,E*3C
$SDHDG,220.1,,,2.9,E*3F
$SDHDG,220.1,,,2.9,E*3F
$GPRMC,134631,A,5812.7417,N,01132.8516,E,0.0,67.0,270715,2.9,E,A*25
$GPVTG,67.0,T,64.1,M,0.0,N,0.0,K,A*21
$GPZDA,134631,27,07,2015,-01,00*62
$GPAAM,,,,N,*38
$GPAPB,,,,,,,,,,,,,,,N*26
$GPBOD,,T,,M,,*47
$GPRMB,,,,,,,,,,,,,,N*04
$GPXTE,,,,,N,N*5E
$SDDBT,12.3,f,3.7,M,2.0,F*30
$SDDPT,3.7,0.-6,*54
$SDMTW,15.0,C*00
$SDVLW,,N,1128.6,N,0.0,N,0.0,N*48
$SDVHW,223.0,T,220.1,M,0.0,N,0.0,K*40
$WIMWD,,T,,M,,N,,M*5A
$WIMWV,,R,,N,V*34
$WIMWV,,T,,N,V*32
$RATLL,02,5813.7811,N,01134.4448,E,2 (Broadband 4G - 2782 B),134631,Q,*59
$RATTM,02,1.34,38.9,T,0.0,2.9,T,,24751376.1,N,2 (Broadband 4G - 2782 B),Q,,134631,M*64
$IIXDR,C,C,,C,AIRTEMP,A,-1.-9,D,HEEL,A,-4.-2,D,TRIM,P,,B,BARO,A,A,,D,RUDDER*0B
$GPGGA,134631,5812.7417,N,01132.8516,E,1,09,0.95,-6,M,40.4,M,,*40
$SDHDG,220.1,,,2.9,E*3F
$SDHDG,220.0,,,2.9,E*3E
$SDHDG,220.0,,,2.9,E*3E
$SDHDG,220.0,,,2.9,E*3E
$GPGLL,5812.7416,N,01132.8517,E,134632,A,A*46
$SDHDG,220.0,,,2.9,E*3E
$SDHDG,220.0,,,2.9,E*3E
$SDHDG,220.0,,,2.9,E*3E
$GPGSA,A,3,21,26,16,20,29,27,18,05,07,,,,1.66,0.95,1.36*0C
$GPGSV,3,1,11,21,71,136,29,26,65,212,40,16,59,283,43,20,37,085,35*7B
$GPGSV,3,2,11,29,29,094,34,27,26,272,38,18,18,150,26,05,16,032,36*79
$GPGSV,3,3,11,07,07,345,28,31,06,209,,35,188,375,*78
$SDHDG,220.0,,,2.9,E*3E
$SDHDG,220.0,,,2.9,E*3E
$SDHDG,220.0,,,2.9,E*3E
$GPRMC,134632,A,5812.7415,N,01132.8520,E,0.0,67.0,270715,2.9,E,A*21
$GPVTG,67.0,T,64.1,M,0.0,N,0.0,K,A*21
$GPZDA,134632,27,07,2015,-01,00*61
$GPAAM,,,,N,*38
$GPAPB,,,,,,,,,,,,,,,N*26
$GPBOD,,T,,M,,*47
$GPRMB,,,,,,,,,,,,,,N*04
$GPXTE,,,,,N,N*5E
$SDDBT,11.4,f,3.4,M,1.9,F*3D
$SDDPT,3.4,0.-6,*57
$SDMTW,15.0,C*00
$SDVLW,,N,1128.6,N,0.0,N,0.0,N*48
$SDVHW,222.9,T,220.0,M,0.0,N,0.0,K*49
$WIMWD,,T,,M,,N,,M*5A
$WIMWV,,R,,N,V*34
$WIMWV,,T,,N,V*32
$RATLL,01,5812.6923,N,01131.9512,E,1 (Broadband 4G - 2782 B),134632,T,*59
$RATTM,01,0.48,264.1,T,0.0,2.9,T,0.48,,N,1 (Broadband 4G - 2782 B),T,,134632,M*51
$IIXDR,C,C,,C,AIRTEMP,A,-1.-7,D,HEEL,A,-4.-2,D,TRIM,P,,B,BARO,A,A,,D,RUDDER*05
$GPGGA,134632,5812.7415,N,01132.8519,E,1,09,1.63,-6,M,40.4,M,,*46
$SDHDG,220.0,,,2.9,E*3E
$SDHDG,220.0,,,2.9,E*3E
$SDHDG,220.0,,,2.9,E*3E
$SDHDG,220.0,,,2.9,E*3E
$GPGLL,5812.7415,N,01132.8519,E,134633,A,A*4A
$SDHDG,220.0,,,2.9,E*3E
$SDHDG,220.0,,,2.9,E*3E
$SDHDG,220.1,,,2.9,E*3F
$GPGSA,A,3,21,26,16,20,29,27,05,07,,,,,2.86,1.63,2.35*00
$GPGSV,3,1,11,21,71,136,29,26,65,212,40,16,59,283,43,20,37,085,35*7B
$GPGSV,3,2,11,29,29,094,33,27,26,272,38,18,18,150,,05,16,032,36*7A
$GPGSV,3,3,11,07,07,345,28,31,06,209,,35,188,375,*78
$SDHDG,220.1,,,2.9,E*3F
$SDHDG,220.1,,,2.9,E*3F
$SDHDG,220.1,,,2.9,E*3F
$GPRMC,134633,A,5812.7415,N,01132.8519,E,0.0,67.0,270715,2.9,E,A*2A
$GPVTG,67.0,T,64.1,M,0.0,N,0.0,K,A*21
$GPZDA,134633,27,07,2015,-01,00*60
$GPAAM,,,,N,*38
$GPAPB,,,,,,,,,,,,,,,N*26
$GPBOD,,T,,M,,*47
$GPRMB,,,,,,,,,,,,,,N*04
$GPXTE,,,,,N,N*5E
$SDDBT,11.8,f,3.6,M,1.9,F*33
$SDDPT,3.6,0.-6,*55
$SDMTW,15.0,C*00
$SDVLW,,N,1128.6,N,0.0,N,0.0,N*48
$SDVHW,223.0,T,220.1,M,0.0,N,0.0,K*40
$WIMWD,,T,,M,,N,,M*5A
$WIMWV,,R,,N,V*34
$WIMWV,,T,,N,V*32
$RATLL,02,5813.7811,N,01134.4448,E,2 (Broadband 4G - 2782 B),134633,Q,*5B
$RATTM,02,1.34,38.9,T,0.0,2.9,T,,24751376.1,N,2 (Broadband 4G - 2782 B),Q,,134633,M*66
$IIXDR,C,C,,C,AIRTEMP,A,-1.-5,D,HEEL,A,-4.-2,D,TRIM,P,,B,BARO,A,A,,D,RUDDER*07
$GPGGA,134633,5812.7414,N,01132.8519,E,1,08,0.95,-6,M,40.4,M,,*4F
$SDHDG,220.1,,,2.9,E*3F
$SDHDG,220.1,,,2.9,E*3F
$SDHDG,220.1,,,2.9,E*3F
$SDHDG,220.0,,,2.9,E*3E
$GPGLL,5812.7414,N,01132.8519,E,134634,A,A*4C
$SDHDG,220.0,,,2.9,E*3E
$SDHDG,220.0,,,2.9,E*3E
$SDHDG,220.0,,,2.9,E*3E
$GPGSA,A,3,21,26,16,20,29,27,18,05,07,,,,1.66,0.95,1.36*0C
$GPGSV,3,1,11,21,71,136,29,26,65,212,40,16,59,283,43,20,37,085,35*7B
$GPGSV,3,2,11,29,29,094,35,27,26,272,38,18,18,150,27,05,16,032,37*78
$GPGSV,3,3,11,07,07,345,28,31,06,209,,35,188,375,*78
$SDHDG,220.0,,,2.9,E*3E
$SDHDG,220.0,,,2.9,E*3E
$SDHDG,220.0,,,2.9,E*3E
$GPRMC,134634,A,5812.7413,N,01132.8520,E,0.0,67.0,270715,2.9,E,A*21
$GPVTG,67.0,T,64.1,M,0.0,N,0.0,K,A*21
$GPZDA,134634,27,07,2015,-01,00*67
$GPAAM,,,,N,*38
$GPAPB,,,,,,,,,,,,,,,N*26
$GPBOD,,T,,M,,*47
$GPRMB,,,,,,,,,,,,,,N*04
$GPXTE,,,,,N,N*5E
$SDDBT,11.5,f,3.5,M,1.9,F*3D
$SDDPT,3.5,0.-6,*56
$SDMTW,15.0,C*00
$SDVLW,,N,1128.6,N,0.0,N,0.0,N*48
$SDVHW,222.9,T,220.0,M,0.0,N,0.0,K*49
$WIMWD,,T,,M,,N,,M*5A
$WIMWV,,R,,N,V*34
$WIMWV,,T,,N,V*32
$RATLL,01,5812.6900,N,01131.9522,E,1 (Broadband 4G - 2782 B),134634,T,*5D
$RATTM,01,0.48,263.8,T,0.0,2.9,T,0.48,,N,1 (Broadband 4G - 2782 B),T,,134634,M*59
$IIXDR,C,C,,C,AIRTEMP,A,-2.0,D,HEEL,A,-4.-3,D,TRIM,P,,B,BARO,A,A,,D,RUDDER*2D
$GPGGA,134634,5812.7413,N,01132.8519,E,1,09,1.63,-6,M,40.4,M,,*46
$SDHDG,220.0,,,2.9,E*3E
$SDHDG,220.0,,,2.9,E*3E
$SDHDG,220.0,,,2.9,E*3E
$SDHDG,220.0,,,2.9,E*3E
$GPGLL,5812.7413,N,01132.8518,E,134635,A,A*4B
$SDHDG,220.0,,,2.9,E*3E
$SDHDG,220.0,,,2.9,E*3E
$SDHDG,220.0,,,2.9,E*3E
$GPGSA,A,3,21,26,16,20,29,27,05,07,,,,,2.86,1.63,2.35*00
$GPGSV,3,1,11,21,71,136,29,26,65,212,40,16,59,283,43,20,37,085,35*7B
$GPGSV,3,2,11,29,29,094,32,27,26,272,38,18,18,150,,05,16,032,37*7A
$GPGSV,3,3,11,07,07,345,28,31,06,209,,47,188,375,*7D
$SDHDG,220.0,,,2.9,E*3E
$SDHDG,220.0,,,2.9,E*3E
$SDHDG,220.1,,,2.9,E*3F
$GPRMC,134635,A,5812.7413,N,01132.8517,E,0.0,67.0,270715,2.9,E,A*24
$GPVTG,67.0,T,64.1,M,0.0,N,0.0,K,A*21
$GPZDA,134635,27,07,2015,-01,00*66
$GPAAM,,,,N,*38
$GPAPB,,,,,,,,,,,,,,,N*26
$GPBOD,,T,,M,,*47
$GPRMB,,,,,,,,,,,,,,N*04
$GPXTE,,,,,N,N*5E
$SDDBT,12.4,f,3.7,M,2.0,F*37
$SDDPT,3.7,0.-6,*54
$SDMTW,15.0,C*00
$SDVLW,,N,1128.6,N,0.0,N,0.0,N*48
$SDVHW,223.0,T,220.1,M,0.0,N,0.0,K*40
$WIMWD,,T,,M,,N,,M*5A
$WIMWV,,R,,N,V*34
$WIMWV,,T,,N,V*32
$RATLL,02,5813.7699,N,01134.4397,E,2 (Broadband 4G - 2782 B),134635,Q,*56
$RATTM,02,1.33,39.1,T,0.0,2.9,T,,24751376.1,N,2 (Broadband 4G - 2782 B),Q,,134635,M*6E
$IIXDR,C,C,,C,AIRTEMP,A,-1.-5,D,HEEL,A,-4.-2,D,TRIM,P,,B,BARO,A,A,,D,RUDDER*07
$GPGGA,134635,5812.7412,N,01132.8517,E,1,08,0.95,-6,M,40.4,M,,*41
$SDHDG,220.1,,,2.9,E*3F
$SDHDG,220.1,,,2.9,E*3F
$SDHDG,220.1,,,2.9,E*3F
$SDHDG,220.1,,,2.9,E*3F
$GPGLL,5812.7412,N,01132.8516,E,134636,A,A*47
$SDHDG,220.1,,,2.9,E*3F
$SDHDG,220.1,,,2.9,E*3F
$SDHDG,220.1,,,2.9,E*3F
$GPGSA,A,3,21,26,16,20,29,27,18,05,07,,,,1.66,0.95,1.36*0C
$GPGSV,3,1,11,21,71,136,27,26,65,212,40,16,59,283,43,20,37,085,35*75
$GPGSV,3,2,11,29,29,094,33,27,26,272,38,18,18,150,23,05,16,032,37*7A
$GPGSV,3,3,11,07,07,345,28,31,06,209,,47,188,375,*7D
$SDHDG,220.1,,,2.9,E*3F
$SDHDG,220.0,,,2.9,E*3E
$SDHDG,220.0,,,2.9,E*3E
$GPRMC,134636,A,5812.7409,N,01132.8518,E,0.0,67.0,270715,2.9,E,A*23
$GPVTG,67.0,T,64.1,M,0.0,N,0.0,K,A*21
$GPZDA,134636,27,07,2015,-01,00*65
$GPAAM,,,,N,*38
$GPAPB,,,,,,,,,,,,,,,N*26
$GPBOD,,T,,M,,*47
$GPRMB,,,,,,,,,,,,,,N*04
$GPXTE,,,,,N,N*5E
$SDDBT,12.5,f,3.8,M,2.0,F*39
$SDDPT,3.8,0.-6,*5B
$SDMTW,15.0,C*00
$SDVLW,,N,1128.6,N,0.0,N,0.0,N*48
$SDVHW,222.9,T,220.0,M,0.0,N,0.0,K*49
$WIMWD,,T,,M,,N,,M*5A
$WIMWV,,R,,N,V*34
$WIMWV,,T,,N,V*32
$RATLL,01,5812.6897,N,01131.9518,E,1 (Broadband 4G - 2782 B),134636,T,*59
$RATTM,01,0.48,263.8,T,0.0,2.9,T,0.48,,N,1 (Broadband 4G - 2782 B),T,,134636,M*5B
$IIXDR,C,C,,C,AIRTEMP,A,-1.-7,D,HEEL,A,-4.-2,D,TRIM,P,,B,BARO,A,A,,D,RUDDER*05
$GPGGA,134636,5812.7409,N,01132.8518,E,1,09,0.95,-7,M,40.4,M,,*47
$SDHDG,220.0,,,2.9,E*3E
$SDHDG,220.0,,,2.9,E*3E
$SDHDG,220.0,,,2.9,E*3E
$SDHDG,220.0,,,2.9,E*3E
$GPGLL,5812.7408,N,01132.8519,E,134637,A,A*42
$SDHDG,220.0,,,2.9,E*3E
$SDHDG,220.0,,,2.9,E*3E
$SDHDG,220.0,,,2.9,E*3E
$GPGSA,A,3,21,26,16,20,29,27,18,05,07,,,,1.66,0.95,1.36*0C
$GPGSV,3,1,11,21,71,136,27,26,65,212,40,16,59,283,43,20,37,085,35*75
$GPGSV,3,2,11,29,29,094,34,27,26,272,38,18,18,150,27,05,16,032,37*79
$GPGSV,3,3,11,07,07,345,29,31,06,209,,47,188,375,*7C
$SDHDG,220.0,,,2.9,E*3E
$SDHDG,220.0,,,2.9,E*3E
$SDHDG,220.0,,,2.9,E*3E
$GPRMC,134637,A,5812.7408,N,01132.8521,E,0.0,67.0,270715,2.9,E,A*29
$GPVTG,67.0,T,64.1,M,0.0,N,0.0,K,A*21
$GPZDA,134637,27,07,2015,-01,00*64
$GPAAM,,,,N,*38
$GPAPB,,,,,,,,,,,,,,,N*26
$GPBOD,,T,,M,,*47
$GPRMB,,,,,,,,,,,,,,N*04
$GPXTE,,,,,N,N*5E
$SDDBT,12.5,f,3.8,M,2.0,F*39
$SDDPT,3.8,0.-6,*5B
$SDMTW,15.0,C*00
$SDVLW,,N,1128.6,N,0.0,N,0.0,N*48
$SDVHW,222.9,T,220.0,M,0.0,N,0.0,K*49
$WIMWD,,T,,M,,N,,M*5A
$WIMWV,,R,,N,V*34
$WIMWV,,T,,N,V*32
$RATLL,02,5813.7699,N,01134.4238,E,2 (Broadband 4G - 2782 B),134637,Q,*50
$RATTM,02,1.32,38.8,T,0.0,2.9,T,,24751376.1,N,2 (Broadband 4G - 2782 B),Q,,134637,M*65
$IIXDR,C,C,,C,AIRTEMP,A,-1.-9,D,HEEL,A,-4.-1,D,TRIM,P,,B,BARO,A,A,,D,RUDDER*08
$GPGGA,134637,5812.7408,N,01132.8521,E,1,09,0.95,-7,M,40.4,M,,*4D
$SDHDG,220.0,,,2.9,E*3E
$SDHDG,220.1,,,2.9,E*3F
$SDHDG,220.1,,,2.9,E*3F
$SDHDG,220.1,,,2.9,E*3F
$GPGLL,5812.7408,N,01132.8521,E,134638,A,A*46
$SDHDG,220.1,,,2.9,E*3F
$SDHDG,220.1,,,2.9,E*3F
$SDHDG,220.1,,,2.9,E*3F
$GPGSA,A,3,21,26,16,20,29,27,18,05,,,,,1.66,0.95,1.36*0B
$GPGSV,3,1,11,21,71,136,26,26,65,212,40,16,59,283,43,20,37,085,35*74
$GPGSV,3,2,11,29,29,094,32,27,26,272,38,33,19,210,,18,18,150,23*77
$GPGSV,3,3,11,05,16,032,37,07,07,345,,31,06,209,*43
$SDHDG,220.1,,,2.9,E*3F
$SDHDG,220.1,,,2.9,E*3F
$SDHDG,220.1,,,2.9,E*3F
$GPRMC,134638,A,5812.7408,N,01132.8524,E,0.0,67.0,270715,2.9,E,A*23
$GPVTG,67.0,T,64.1,M,0.0,N,0.0,K,A*21
$GPZDA,134638,27,07,2015,-01,00*6B
$GPAAM,,,,N,*38
$GPAPB,,,,,,,,,,,,,,,N*26
$GPBOD,,T,,M,,*47
$GPRMB,,,,,,,,,,,,,,N*04
$GPXTE,,,,,N,N*5E
$SDDBT,12.2,f,3.7,M,2.0,F*31
$SDDPT,3.7,0.-6,*54
$SDMTW,15.0,C*00
$SDVLW,,N,1128.6,N,0.0,N,0.0,N*48
$SDVHW,223.0,T,220.1,M,0.0,N,0.0,K*40
$WIMWD,,T,,M,,N,,M*5A
$WIMWV,,R,,N,V*34
$WIMWV,,T,,N,V*32
$RATLL,01,5812.6893,N,01131.9526,E,1 (Broadband 4G - 2782 B),134638,T,*5E
$RATTM,01,0.48,263.8,T,0.0,2.9,T,0.48,,N,1 (Broadband 4G - 2782 B),T,,134638,M*55
$IIXDR,C,C,,C,AIRTEMP,A,-1.-5,D,HEEL,A,-4.-3,D,TRIM,P,,B,BARO,A,A,,D,RUDDER*06
$GPGGA,134638,5812.7407,N,01132.8524,E,1,09,0.95,-6,M,40.4,M,,*49
$SDHDG,220.2,,,2.9,E*3C
$SDHDG,220.2,,,2.9,E*3C
$SDHDG,220.2,,,2.9,E*3C
$SDHDG,220.2,,,2.9,E*3C
$GPGLL,5812.7406,N,01132.8524,E,134639,A,A*4C
$SDHDG,220.2,,,2.9,E*3C
$SDHDG,220.2,,,2.9,E*3C
$SDHDG,220.2,,,2.9,E*3C
$GPGSA,A,3,21,26,16,20,29,27,18,05,07,,,,1.66,0.95,1.36*0C
$GPGSV,3,1,11,21,71,136,27,26,65,212,40,16,59,283,43,20,37,085,35*75
$GPGSV,3,2,11,29,29,094,32,27,26,272,38,33,19,210,,18,18,150,26*72
$GPGSV,3,3,11,05,16,032,37,07,07,345,30,31,06,209,*40
$SDHDG,220.2,,,2.9,E*3C
$SDHDG,220.2,,,2.9,E*3C
$SDHDG,220.2,,,2.9,E*3C
$GPRMC,134639,A,5812.7406,N,01132.8526,E,0.0,67.0,270715,2.9,E,A*2E
$GPVTG,67.0,T,64.1,M,0.0,N,0.0,K,A*21
$GPZDA,134639,27,07,2015,-01,00*6A
$GPAAM,,,,N,*38
$GPAPB,,,,,,,,,,,,,,,N*26
$GPBOD,,T,,M,,*47
$GPRMB,,,,,,,,,,,,,,N*04
$GPXTE,,,,,N,N*5E
$SDDBT,11.5,f,3.5,M,1.9,F*3D
$SDDPT,3.5,0.-6,*56
$SDMTW,15.0,C*00
$SDVLW,,N,1128.6,N,0.0,N,0.0,N*48
$SDVHW,223.1,T,220.2,M,0.0,N,0.0,K*42
$WIMWD,,T,,M,,N,,M*5A
$WIMWV,,R,,N,V*34
$WIMWV,,T,,N,V*32
$RATLL,02,5813.7699,N,01134.4242,E,2 (Broadband 4G - 2782 B),134639,Q,*53
$RATTM,02,1.32,38.8,T,0.0,2.9,T,,24055141.5,N,2 (Broadband 4G - 2782 B),Q,,134639,M*6A
$IIXDR,C,C,,C,AIRTEMP,A,-1.-8,D,HEEL,A,-4.-2,D,TRIM,P,,B,BARO,A,A,,D,RUDDER*0A
$GPGGA,134639,5812.7406,N,01132.8526,E,1,09,0.95,-6,M,40.4,M,,*4B
$SDHDG,220.2,,,2.9,E*3C
$SDHDG,220.2,,,2.9,E*3C
$SDHDG,220.2,,,2.9,E*3C
$SDHDG,220.2,,,2.9,E*3C
$GPGLL,5812.7407,N,01132.8526,E,134640,A,A*41
$SDHDG,220.2,,,2.9,E*3C
$SDHDG,220.2,,,2.9,E*3C
$SDHDG,220.2,,,2.9,E*3C
$GPGSA,A,3,21,26,16,20,29,27,18,05,07,,,,1.67,0.95,1.37*0C
$GPGSV,3,1,11,21,71,136,30,26,65,212,40,16,59,283,43,20,37,085,35*73
$GPGSV,3,2,11,29,29,094,33,27,26,272,38,37,23,168,,18,18,150,26*72
$GPGSV,3,3,11,05,16,032,37,07,07,345,30,31,06,209,*40
$SDHDG,220.1,,,2.9,E*3F
$SDHDG,220.1,,,2.9,E*3F
$SDHDG,220.1,,,2.9,E*3F
$GPRMC,134640,A,5812.7407,N,01132.8525,E,0.0,67.0,270715,2.9,E,A*22
$GPVTG,67.0,T,64.1,M,0.0,N,0.0,K,A*21
$GPZDA,134640,27,07,2015,-01,00*64
$GPAAM,,,,N,*38
$GPAPB,,,,,,,,,,,,,,,N*26
$GPBOD,,T,,M,,*47
$GPRMB,,,,,,,,,,,,,,N*04
$GPXTE,,,,,N,N*5E
$SDDBT,12.1,f,3.7,M,2.0,F*32
$SDDPT,3.7,0.-6,*54
$SDMTW,15.0,C*00
$SDVLW,,N,1128.6,N,0.0,N,0.0,N*48
$SDVHW,223.0,T,220.1,M,0.0,N,0.0,K*40
$WIMWD,,T,,M,,N,,M*5A
$WIMWV,,R,,N,V*34
$WIMWV,,T,,N,V*32
$RATLL,01,5812.6899,N,01131.9535,E,1 (Broadband 4G - 2782 B),134640,T,*59
$RATTM,01,0.48,263.9,T,0.0,2.9,T,0.48,,N,1 (Broadband 4G - 2782 B),T,,134640,M*5B
$IIXDR,C,C,,C,AIRTEMP,A,-1.-6,D,HEEL,A,-4.-3,D,TRIM,P,,B,BARO,A,A,,D,RUDDER*05
$GPGGA,134640,5812.7407,N,01132.8525,E,1,09,0.95,-6,M,40.4,M,,*47
$SDHDG,220.1,,,2.9,E*3F
$SDHDG,220.1,,,2.9,E*3F
$SDHDG,220.1,,,2.9,E*3F
$SDHDG,220.1,,,2.9,E*3F
$GPGLL,5812.7406,N,01132.8525,E,134641,A,A*42
$SDHDG,220.1,,,2.9,E*3F
$SDHDG,220.1,,,2.9,E*3F
$SDHDG,220.2,,,2.9,E*3C
$GPGSA,A,3,21,26,16,20,29,27,05,07,,,,,1.66,0.95,1.37*04
$GPGSV,3,1,11,21,71,136,30,26,65,212,40,16,59,283,43,20,37,085,35*73
$GPGSV,3,2,11,29,29,094,32,27,26,272,38,18,18,150,,05,16,032,37*7A
$GPGSV,3,3,11,44,09,121,,07,07,345,30,31,06,209,*4C
$SDHDG,220.2,,,2.9,E*3C
$SDHDG,220.2,,,2.9,E*3C
$SDHDG,220.2,,,2.9,E*3C
$GPRMC,134641,A,5812.7406,N,01132.8524,E,0.0,67.0,270715,2.9,E,A*23
$GPVTG,67.0,T,64.1,M,0.0,N,0.0,K,A*21
$GPZDA,134641,27,07,2015,-01,00*65
$GPAAM,,,,N,*38
$GPAPB,,,,,,,,,,,,,,,N*26
$GPBOD,,T,,M,,*47
$GPRMB,,,,,,,,,,,,,,N*04
$GPXTE,,,,,N,N*5E
$SDDBT,11.8,f,3.6,M,1.9,F*33
$SDDPT,3.6,0.-6,*55
$SDMTW,15.0,C*00
$SDVLW,,N,1128.6,N,0.0,N,0.0,N*48
$SDVHW,223.1,T,220.2,M,0.0,N,0.0,K*42
$WIMWD,,T,,M,,N,,M*5A
$WIMWV,,R,,N,V*34
$WIMWV,,T,,N,V*32
$RATLL,02,5813.7604,N,01134.4156,E,2 (Broadband 4G - 2782 B),134641,Q,*5E
$RATTM,02,1.31,38.9,T,0.0,2.9,T,,24751376.1,N,2 (Broadband 4G - 2782 B),Q,,134641,M*66
$IIXDR,C,C,,C,AIRTEMP,A,-1.-5,D,HEEL,A,-4.-3,D,TRIM,P,,B,BARO,A,A,,D,RUDDER*06
$GPGGA,134641,5812.7405,N,01132.8524,E,1,08,0.95,-5,M,40.4,M,,*47
$SDHDG,220.2,,,2.9,E*3C
$SDHDG,220.2,,,2.9,E*3C
$SDHDG,220.2,,,2.9,E*3C
$SDHDG,220.2,,,2.9,E*3C
$GPGLL,5812.7405,N,01132.8523,E,134642,A,A*44
$SDHDG,220.2,,,2.9,E*3C
$SDHDG,220.2,,,2.9,E*3C
$SDHDG,220.2,,,2.9,E*3C
$GPGSA,A,3,21,26,16,20,29,27,18,07,,,,,1.66,0.95,1.36*09
$GPGSV,3,1,11,21,71,136,32,26,65,212,39,16,59,283,43,20,37,085,34*7E
$GPGSV,3,2,11,29,29,094,35,27,26,272,38,33,19,210,,18,18,150,27*74
$GPGSV,3,3,11,05,16,032,,07,07,345,30,31,06,209,*44
$SDHDG,220.1,,,2.9,E*3F
$SDHDG,220.1,,,2.9,E*3F
$SDHDG,220.1,,,2.9,E*3F
$GPRMC,134642,A,5812.7403,N,01132.8523,E,0.0,67.0,270715,2.9,E,A*22
$GPVTG,67.0,T,64.1,M,0.0,N,0.0,K,A*21
$GPZDA,134642,27,07,2015,-01,00*66
$GPAAM,,,,N,*38
$GPAPB,,,,,,,,,,,,,,,N*26
$GPBOD,,T,,M,,*47
$GPRMB,,,,,,,,,,,,,,N*04
$GPXTE,,,,,N,N*5E
$SDDBT,12.2,f,3.7,M,2.0,F*31
$SDDPT,3.7,0.-6,*54
$SDMTW,15.0,C*00
$SDVLW,,N,1128.6,N,0.0,N,0.0,N*48
$SDVHW,223.0,T,220.1,M,0.0,N,0.0,K*40
$WIMWD,,T,,M,,N,,M*5A
$WIMWV,,R,,N,V*34
$WIMWV,,T,,N,V*32
$RATLL,01,5812.6898,N,01131.9524,E,1 (Broadband 4G - 2782 B),134642,T,*5A
$RATTM,01,0.48,263.9,T,0.0,2.9,T,0.48,,N,1 (Broadband 4G - 2782 B),T,,134642,M*59
$IIXDR,C,C,,C,AIRTEMP,A,-1.-9,D,HEEL,A,-4.-2,D,TRIM,P,,B,BARO,A,A,,D,RUDDER*0B
$GPGGA,134642,5812.7403,N,01132.8524,E,1,09,0.95,-5,M,40.4,M,,*43
$SDHDG,220.1,,,2.9,E*3F
$SDHDG,220.1,,,2.9,E*3F
$SDHDG,220.0,,,2.9,E*3E
$SDHDG,220.0,,,2.9,E*3E
$GPGLL,5812.7403,N,01132.8524,E,134643,A,A*44
$SDHDG,220.0,,,2.9,E*3E
$SDHDG,220.0,,,2.9,E*3E
$SDHDG,220.0,,,2.9,E*3E
$GPGSA,A,3,21,26,16,20,29,27,18,05,07,,,,1.66,0.95,1.36*0C
$GPGSV,3,1,11,21,71,136,31,26,65,212,39,16,59,283,43,20,37,085,34*7D
$GPGSV,3,2,11,29,29,094,33,27,26,272,38,33,19,210,,18,18,150,25*70
$GPGSV,3,3,11,05,16,032,37,07,07,345,30,31,06,209,*40
$SDHDG,220.0,,,2.9,E*3E
$SDHDG,220.0,,,2.9,E*3E
$SDHDG,220.0,,,2.9,E*3E
$GPRMC,134643,A,5812.7403,N,01132.8527,E,0.0,67.0,270715,2.9,E,A*27
$GPVTG,67.0,T,64.1,M,0.0,N,0.0,K,A*21
$GPZDA,134643,27,07,2015,-01,00*67
$GPAAM,,,,N,*38
$GPAPB,,,,,,,,,,,,,,,N*26
$GPBOD,,T,,M,,*47
$GPRMB,,,,,,,,,,,,,,N*04
$GPXTE,,,,,N,N*5E
$SDDBT,12.2,f,3.7,M,2.0,F*31
$SDDPT,3.7,0.-6,*54
$SDMTW,15.0,C*00
$SDVLW,,N,1128.6,N,0.0,N,0.0,N*48
$SDVHW,222.9,T,220.0,M,0.0,N,0.0,K*49
$WIMWD,,T,,M,,N,,M*5A
$WIMWV,,R,,N,V*34
$WIMWV,,T,,N,V*32
$RATLL,02,5813.7484,N,01134.4197,E,2 (Broadband 4G - 2782 B),134643,Q,*5B
$RATTM,02,1.30,39.3,T,0.0,2.9,T,,24751376.1,N,2 (Broadband 4G - 2782 B),Q,,134643,M*6E
$IIXDR,C,C,,C,AIRTEMP,A,-1.-5,D,HEEL,A,-4.-3,D,TRIM,P,,B,BARO,A,A,,D,RUDDER*06
$GPGGA,134643,5812.7403,N,01132.8528,E,1,09,0.95,-5,M,40.4,M,,*4E
$SDHDG,220.0,,,2.9,E*3E
$SDHDG,220.0,,,2.9,E*3E
$SDHDG,220.0,,,2.9,E*3E
$SDHDG,220.0,,,2.9,E*3E
$GPGLL,5812.7403,N,01132.8529,E,134644,A,A*4E
$SDHDG,220.0,,,2.9,E*3E
$SDHDG,220.0,,,2.9,E*3E
$SDHDG,220.0,,,2.9,E*3E
$GPGSA,A,3,21,26,16,20,29,27,18,05,07,,,,1.67,0.95,1.37*0C
$GPGSV,3,1,11,21,71,136,30,26,65,212,39,16,59,283,43,20,37,085,35*7D
$GPGSV,3,2,11,29,29,094,33,27,26,272,38,33,19,210,,18,18,150,25*70
$GPGSV,3,3,11,05,16,032,37,07,07,345,30,31,06,209,*40
$SDHDG,220.0,,,2.9,E*3E
$SDHDG,220.0,,,2.9,E*3E
$SDHDG,220.0,,,2.9,E*3E
$GPRMC,134644,A,5812.7403,N,01132.8530,E,0.0,67.0,270715,2.9,E,A*26
$GPVTG,67.0,T,64.1,M,0.0,N,0.0,K,A*21
$GPZDA,134644,27,07,2015,-01,00*60
$GPAAM,,,,N,*38
$GPAPB,,,,,,,,,,,,,,,N*26
$GPBOD,,T,,M,,*47
$GPRMB,,,,,,,,,,,,,,N*04
$GPXTE,,,,,N,N*5E
$SDDBT,12.0,f,3.6,M,2.0,F*32
$SDDPT,3.6,0.-6,*55
$SDMTW,15.0,C*00
$SDVLW,,N,1128.6,N,0.0,N,0.0,N*48
$SDVHW,222.9,T,220.0,M,0.0,N,0.0,K*49
$WIMWD,,T,,M,,N,,M*5A
$WIMWV,,R,,N,V*34
$WIMWV,,T,,N,V*32
$RATLL,01,5812.6912,N,01131.9517,E,1 (Broadband 4G - 2782 B),134644,T,*5F
$RATTM,01,0.48,264.1,T,0.0,2.9,T,0.48,,N,1 (Broadband 4G - 2782 B),T,,134644,M*50
$IIXDR,C,C,,C,AIRTEMP,A,-1.-7,D,HEEL,A,-4.-2,D,TRIM,P,,B,BARO,A,A,,D,RUDDER*05
$GPGGA,134644,5812.7403,N,01132.8530,E,1,09,0.95,-5,M,40.4,M,,*40
$SDHDG,220.0,,,2.9,E*3E
$SDHDG,220.0,,,2.9,E*3E
$SDHDG,219.9,,,2.9,E*3D
$SDHDG,219.9,,,2.9,E*3D
$GPGLL,5812.7402,N,01132.8530,E,134645,A,A*46
$SDHDG,219.9,,,2.9,E*3D
$SDHDG,219.9,,,2.9,E*3D
$SDHDG,219.9,,,2.9,E*3D
$GPGSA,A,3,21,26,16,20,29,27,18,05,07,,,,1.66,0.95,1.36*0C
$GPGSV,3,1,11,21,71,136,32,26,65,212,38,16,59,283,43,20,37,085,34*7F
$GPGSV,3,2,11,29,29,094,35,27,26,272,38,33,19,210,,18,18,150,28*7B
$GPGSV,3,3,11,05,16,032,37,07,07,345,30,31,06,209,*40
$SDHDG,219.9,,,2.9,E*3D
$SDHDG,219.9,,,2.9,E*3D
$SDHDG,219.9,,,2.9,E*3D
$GPRMC,134645,A,5812.7399,N,01132.8531,E,0.0,67.0,270715,2.9,E,A*22
$GPVTG,67.0,T,64.1,M,0.0,N,0.0,K,A*21
$GPZDA,134645,27,07,2015,-01,00*61
$GPAAM,,,,N,*38
$GPAPB,,,,,,,,,,,,,,,N*26
$GPBOD,,T,,M,,*47
$GPRMB,,,,,,,,,,,,,,N*04
$GPXTE,,,,,N,N*5E
$SDDBT,11.9,f,3.6,M,1.9,F*32
$SDDPT,3.6,0.-6,*55
$SDMTW,15.0,C*00
$SDVLW,,N,1128.6,N,0.0,N,0.0,N*48
$SDVHW,222.8,T,219.9,M,0.0,N,0.0,K*4B
$WIMWD,,T,,M,,N,,M*5A
$WIMWV,,R,,N,V*34
$WIMWV,,T,,N,V*32
$RATLL,02,5813.7484,N,01134.4197,E,2 (Broadband 4G - 2782 B),134645,Q,*5D
$RATTM,02,1.30,39.3,T,0.0,2.9,T,,24751376.1,N,2 (Broadband 4G - 2782 B),Q,,134645,M*68
$IIXDR,C,C,,C,AIRTEMP,A,-1.-9,D,HEEL,A,-4.-2,D,TRIM,P,,B,BARO,A,A,,D,RUDDER*0B
$GPGGA,134645,5812.7398,N,01132.8531,E,1,09,0.95,-4,M,40.4,M,,*44
$SDHDG,219.9,,,2.9,E*3D
$SDHDG,219.9,,,2.9,E*3D
$SDHDG,220.0,,,2.9,E*3E
$GPGLL,5812.7398,N,01132.8530,E,134646,A,A*41
$SDHDG,220.0,,,2.9,E*3E
$SDHDG,220.0,,,2.9,E*3E
$SDHDG,220.1,,,2.9,E*3F
$GPGSA,A,3,21,26,16,20,29,27,18,05,07,,,,1.67,0.95,1.37*0C
$GPGSV,3,1,11,21,71,136,29,26,65,212,39,16,59,283,43,20,37,085,35*75
$GPGSV,3,2,11,29,29,094,32,27,26,272,38,37,23,168,,18,18,150,24*71
$GPGSV,3,3,11,05,16,032,37,07,07,345,30,31,06,208,*41
$SDHDG,220.1,,,2.9,E*3F
$SDHDG,220.1,,,2.9,E*3F
$SDHDG,220.1,,,2.9,E*3F
$GPRMC,134646,A,5812.7398,N,01132.8527,E,0.0,67.0,270715,2.9,E,A*27
$GPVTG,67.0,T,64.1,M,0.0,N,0.0,K,A*21
$GPZDA,134646,27,07,2015,-01,00*62
$GPAAM,,,,N,*38
$SDHDG,220.1,,,2.9,E*3F
$GPAPB,,,,,,,,,,,,,,,N*26
$GPBOD,,T,,M,,*47
$GPRMB,,,,,,,,,,,,,,N*04
$GPXTE,,,,,N,N*5E
$SDDBT,12.5,f,3.8,M,2.0,F*39
$SDDPT,3.8,0.-6,*5B
$SDMTW,15.0,C*00
$SDVLW,,N,1128.6,N,0.0,N,0.0,N*48
$SDVHW,223.0,T,220.1,M,0.0,N,0.0,K*40
$WIMWD,,T,,M,,N,,M*5A
$WIMWV,,R,,N,V*34
$WIMWV,,T,,N,V*32
$RATLL,01,5812.6912,N,01131.9517,E,1 (Broadband 4G - 2782 B),134646,T,*5D
$RATTM,01,0.48,264.1,T,0.0,2.9,T,0.48,,N,1 (Broadband 4G - 2782 B),T,,134646,M*52
